[{"dist":"Qu\u1eadn 3","img":"https://cdn.chotot.com/msOZJez_07UUA4Un5uv1TzucseThdIecfRq7zpX97-g/preset:listing/plain/0db8314f20f66e67fecbb7b1730805d0-2768521118368449135.jpg","lat":10.77552,"long":106.68733,"price":6800000000,"title":"Nh\u00e0 b\u00e1n 524/20 Ng D Chieu p4.q3 khu CXDT","url":"https://www.nhatot.com/mua-ban-nha-dat-Qu\u1eadn-3-tp-ho-chi-minh/88717693.htm"},{"dist":"Qu\u1eadn 3","img":"https://cdn.chotot.com/4SG2mFkZWc9d50gCyXGNStgWGTYeMMfk-izgERi31dY/preset:listing/plain/2b70c10fd16b6ffb7c7c9d96893cb89b-2789381115622590803.jpg","lat":10.78935,"long":106.68566,"price":1570000000,"title":"K\u1eb8T V\u1ed0N C\u1ea6N B\u00c1N G\u1ea4P CH TERRA ROYAL 96M 3PN Q3 SHR","url":"https://www.nhatot.com/mua-ban-nha-dat-Qu\u1eadn-3-tp-ho-chi-minh/98731131.htm"},{"dist":"Qu\u1eadn 3","img":"https://cdn.chotot.com/VkA-vySQ9J9pncnB2CHFNuQYHhEWzCpKMcb_6ayPPBA/preset:listing/plain/c32a2e46eba402a6d1e8041b4035507a-2803037050548403316.jpg","lat":10.78852,"long":106.68526,"price":3830000000,"title":"B\u00c1N NH\u00c0 4 T\u1ea6NG L\u00dd CH\u00cdNH TH\u1eaeNG, QU\u1eacN 3","url":"https://www.nhatot.com/mua-ban-nha-dat-Qu\u1eadn-3-tp-ho-chi-minh/101922453.htm"},{"dist":"Qu\u1eadn 3","img":"https://cdn.chotot.com/OuN-vLP0JLgGaB64k3_aXWF1UqSBO-nVC7G_bmmhFp4/preset:listing/plain/9a28f4d045d3e1db4e2c85b113bbc9b7-2804526387502373491.jpg","lat":10.78282,"long":106.68702,"price":15200000000,"title":"B\u00c1N L\u00d4 \u0110\u1ea4T CH\u00cdNH CH\u1ee6 S\u1ed0 685 \u0110\u01af\u1edcNG HO\u00c0NG SA,QU\u1eacN 3","url":"https://www.nhatot.com/mua-ban-nha-dat-Qu\u1eadn-3-tp-ho-chi-minh/102237239.htm"},{"dist":"Qu\u1eadn 3","img":"https://cdn.chotot.com/a_vm7XlOrFd9R4JtCERmvPbBD4T9trlZ5QqtVmeHkz8/preset:listing/plain/490b62976eff8263c43e7d20f64e55b9-2804520990141381034.jpg","lat":10.773081,"long":106.68292,"price":3780000000,"title":"B\u00c1N NHANH C\u0102N NH\u00c0 \u0110.Nguy\u1ec5n \u0110\u00ecnh Chi\u1ec3u Ph\u01b0\u1eddng 4 Q3","url":"https://www.nhatot.com/mua-ban-nha-dat-Qu\u1eadn-3-tp-ho-chi-minh/102236654.htm"},{"dist":"Qu\u1eadn 3","img":"https://cdn.chotot.com/c6raYDYaeMOYllqjxKtyZsGCRmzB-OKdxMrZKoXQmmA/preset:listing/plain/9de41da475d761b8b0ca18098f8fe60a-2804523188677683785.jpg","lat":10.78789,"long":106.67586,"price":7700000000,"title":"\u00d4 t\u00f4 quay \u0111\u1ea7u -S\u00e1t m\u1eb7t ti\u1ec1n- 4T\u1ea7ng- 36m2. Ch\u1ec9 7t\u1ef77","url":"https://www.nhatot.com/mua-ban-nha-dat-Qu\u1eadn-3-tp-ho-chi-minh/102236621.htm"},{"dist":"Qu\u1eadn 3","img":"https://cdn.chotot.com/XLXkgYg4iwoAakmBTg-tZfREAgxqCRmV-a4wGVXyM-Q/preset:listing/plain/fd7334462ba530460c6c094ff896d9f3-2803015819868549721.jpg","lat":10.78852,"long":106.68526,"price":3830000000,"title":"BA\u0301N NHA\u0300 4 T\u00c2\u0300NG LY\u0301 CHI\u0301NH TH\u0102\u0301NG,  DTSD 125 M2","url":"https://www.nhatot.com/mua-ban-nha-dat-Qu\u1eadn-3-tp-ho-chi-minh/100990178.htm"},{"dist":"Qu\u1eadn 3","img":"https://cdn.chotot.com/VmMLWuJ9I5yfmJJ3p2lcuqQnqAn63h08oq7suT-odIQ/preset:listing/plain/e7c27bac1e0e9cba6e397d48567045f7-2803909740741855795.jpg","lat":10.77356,"long":106.68305,"price":2700000000,"title":"Di D\u1eddi V\u1ec1Qu\u00ea B\u00e1n Nh\u00e0 V\u01b0\u1eddn Chu\u1ed1i Q3 Gi\u00e1 2T\u1ef67TL 45M2","url":"https://www.nhatot.com/mua-ban-nha-dat-Qu\u1eadn-3-tp-ho-chi-minh/102110229.htm"},{"dist":"Qu\u1eadn 3","img":"https://cdn.chotot.com/eZOjBYty2XJed2ENk7JV2VmL5E6qHFgFMV8xR0Pg0C4/preset:property_project_small/plain/f1478db3-d3e7-44e1-a2e8-dd445381ad3f.jpg","lat":10.78731,"long":106.6736,"price":2100000000,"title":"Ch\u1ee7 c\u1ea7n b\u00e1n CC Screc Tower Q3 77m2 gi\u00e1 2,1 t\u1ef7","url":"https://www.nhatot.com/mua-ban-nha-dat-Qu\u1eadn-3-tp-ho-chi-minh/102235979.htm"},{"dist":"Qu\u1eadn 3","img":"https://cdn.chotot.com/aNN1DmbkJTLcVS8VL_83gFke1Q72vRXVzZpSmg5P_Hk/preset:listing/plain/5ac69f7bf8b47cc22cc9e1f479baeb7e-2796868214846613472.jpg","lat":10.77259,"long":106.68557,"price":1200000000,"title":"B\u00e1n nh\u00e0 Nguy\u1ec5n \u0110\u00ecnh Chi\u1ec3u Q3 70m2 1ty2 SHR 1T1L","url":"https://www.nhatot.com/mua-ban-nha-dat-Qu\u1eadn-3-tp-ho-chi-minh/100553210.htm"},{"dist":"Qu\u1eadn 3","img":"https://cdn.chotot.com/s-o4AVSxQwIrw86zg3Qj-DIW1Y3CcHtoWsyb4u4bCNw/preset:listing/plain/ba6a4ba7303b884655f40674649a81e6-2796723981073937779.jpg","lat":10.7894,"long":106.67673,"price":1150000000,"title":"B\u00e1n nh\u00e0 L\u00ea V\u0103n S\u1ef9 Q3 70m2 1ty150 SHR g\u1ea7n TH LH Mai","url":"https://www.nhatot.com/mua-ban-nha-dat-Qu\u1eadn-3-tp-ho-chi-minh/100521686.htm"},{"dist":"Qu\u1eadn 3","img":"https://cdn.chotot.com/XJ1-IobLRBZoJfUBq74phrI88LDmrXIGCPxpio8oCg0/preset:listing/plain/89386d1756d0a76d03091b6b812af85d-2804504215378375853.jpg","lat":10.76991,"long":106.68372,"price":2040000000,"title":"Nh\u00e0 Qu\u1eadn 3 : V\u00f5 V\u0103n T\u1ea7n P5 Q3 ( Dt: 40 m2 ) 1T1L","url":"https://www.nhatot.com/mua-ban-nha-dat-Qu\u1eadn-3-tp-ho-chi-minh/102234757.htm"},{"dist":"Qu\u1eadn 3","img":"https://cdn.chotot.com/HQ1Ax079ueosBK-zEz5JbCfKhGWCCYa0aoATGuvUWnY/preset:listing/plain/f88031aac46449c6ab545b91ec58cfdb-2795810071237051890.jpg","lat":10.76982,"long":106.68037,"price":1500000000,"title":"Ch\u1ee7 g\u1eedi b\u00e1n c\u0103n nh\u00e0 \u0110.B\u00e0n C\u1edd P3, Qu\u1eadn 3 1.5 t\u1ec9","url":"https://www.nhatot.com/mua-ban-nha-dat-Qu\u1eadn-3-tp-ho-chi-minh/100305810.htm"},{"dist":"Qu\u1eadn 3","img":"https://cdn.chotot.com/EiRg9-ilwz2n3NFHoYNUuhs65_zG3_rJ1dGpSWMD8wU/preset:listing/plain/48275e291987cdcd7fc9a09b19e73d57-2804513232300717229.jpg","lat":10.78935,"long":106.68566,"price":1620000000,"title":"B\u00c1N G\u1ea4P CC TERRA ROYAL Q3 72M2 2PN 2WC 1.62T\u1ef6","url":"https://www.nhatot.com/mua-ban-nha-dat-Qu\u1eadn-3-tp-ho-chi-minh/102234390.htm"},{"dist":"Qu\u1eadn 3","img":"https://cdn.chotot.com/oyBSZZcHJTLWvBq9sMCdmm04gtCwzgTZNMyra7CCyAM/preset:listing/plain/c00afb08c4a5421186b10ad6ace9628f-2804512862725453231.jpg","lat":10.78668,"long":106.66556,"price":2730000000,"title":"KDTL B\u00c1N NH\u00c0 HXH CMT8 Q3 57M2 2 T\u1ef6 730 TR, TI\u1ec6N KD","url":"https://www.nhatot.com/mua-ban-nha-dat-Qu\u1eadn-3-tp-ho-chi-minh/102234387.htm"},{"dist":"Qu\u1eadn 3","img":"https://cdn.chotot.com/T7CC21-ixlM0s5q8ztr9q_tMg7yFbsnuJ0KD7VGi__k/preset:listing/plain/1e4646a4fb13e0a7490299940a82123d-2804512054329416394.jpg","lat":10.77052,"long":106.67998,"price":2150000000,"title":"K\u1eb8T TI\u1ec0N B\u00c1N NH\u00c0 \u0110\u01af\u1edcNG B\u00c0N C\u1edc Q.3/52m2/2T\u1ef6150tr","url":"https://www.nhatot.com/mua-ban-nha-dat-Qu\u1eadn-3-tp-ho-chi-minh/102234125.htm"},{"dist":"Qu\u1eadn 3","img":"https://cdn.chotot.com/BbM3ADqUBy_rvE-weNhsJffuq6k8PpOHBia3BexC7fg/preset:listing/plain/3da0dea3e781716482df2d3df8dee4db-2799891515968165479.jpg","lat":10.77948,"long":106.68785,"price":38000000000,"title":"Ba\u0301n nha\u0300 m\u0103\u0323t ti\u00ea\u0300n TT Q3 g\u00e2\u0300n C\u00f4ng Vi\u00ean Tao \u0110a\u0300n","url":"https://www.nhatot.com/mua-ban-nha-dat-Qu\u1eadn-3-tp-ho-chi-minh/101252719.htm"},{"dist":"Qu\u1eadn 3","img":"https://cdn.chotot.com/NaXc2kD2Hwn8fburYvDrKpsQWgbLu29qLZkHz-fhWz8/preset:listing/plain/7fa600ea25c9018afe70da6092c98b01-2796249712337355013.jpg","lat":10.78935,"long":106.68566,"price":2670000000,"title":"CHCC Terra Royal Q3 t\u1ea7ng 12, 72m2-2 t\u1ef7 670.T\u1ea7ng 12","url":"https://www.nhatot.com/mua-ban-nha-dat-Qu\u1eadn-3-tp-ho-chi-minh/100405285.htm"},{"dist":"Qu\u1eadn 3","img":"https://cdn.chotot.com/ug6u8LR3uU3K-D_NDYJfQxSDFRQYPkt_C6s4_ASXSIk/preset:listing/plain/6bbcdd9016dc239e08efc58cdbe57c39-2800575913559916929.jpg","lat":10.76912,"long":106.67989,"price":5000000000,"title":"B\u00e1n nh\u00e0 ch\u00ednh ch\u1ee7 ch\u1ee3 B\u00e0n C\u1edd","url":"https://www.nhatot.com/mua-ban-nha-dat-Qu\u1eadn-3-tp-ho-chi-minh/100336075.htm"},{"dist":"Qu\u1eadn 3","img":"https://cdn.chotot.com/8YONDVo7fD7kZ9ZXikb_S-zNEi0aAF5v3JDsyP1-n6Q/preset:listing/plain/783ad6ea050ffc9e22931350edb521ff-2804510444229068933.jpg","lat":10.767716,"long":106.68145,"price":7000000000,"title":"HXH 4m Nguy\u1ec5n \u0110\u00ecnh Chi\u1ec3u 35m2 5 t\u1ea7ng \u00d4 T\u00d4 \u0111\u1eadu c\u1eeda","url":"https://www.nhatot.com/mua-ban-nha-dat-Qu\u1eadn-3-tp-ho-chi-minh/102233661.htm"},{"dist":"Qu\u1eadn 3","img":"https://cdn.chotot.com/OEiCQFYOSm1R0jzj5N-RWjin8vR7zNg5ky816tMpy0Y/preset:listing/plain/4863373c34d2f27e4eda2e05b31a7a5f-2804506266307179951.jpg","lat":10.78704,"long":106.68058,"price":1600000000,"title":"C\u1ea6N V\u1ed0N KD B\u00c1N NH\u00c0 1T1L-L\u00ca V\u0102N S\u1ef8- Q3- 48M2/1,6 T\u1ef6","url":"https://www.nhatot.com/mua-ban-nha-dat-Qu\u1eadn-3-tp-ho-chi-minh/102232489.htm"},{"dist":"Qu\u1eadn 3","img":"https://cdn.chotot.com/r9jrh82fhZBOO09Sw_CPQzkleCpNY89_E5BEywLMw5o/preset:listing/plain/608ced1781e90854c2d47fb74ee5b897-2772703864552593985.jpg","lat":10.773948,"long":106.682434,"price":5300000000,"title":"C\u01b0 x\u00e1 \u0110\u00f4 Th\u00e0nh 4 t\u1ea7ng 3pn 4wc c\u00f3 s\u00e2n th\u01b0\u1ee3ng","url":"https://www.nhatot.com/mua-ban-nha-dat-Qu\u1eadn-3-tp-ho-chi-minh/95009465.htm"},{"dist":"Qu\u1eadn 3","img":"https://cdn.chotot.com/0lB5lIvW-6ZpoglB1qNFxvKYCzoxO8OMqwY4P8jETi8/preset:listing/plain/574ab155916b3e94a4c92942e2a369a4-2804505418055817930.jpg","lat":10.76832,"long":106.67952,"price":5450000000,"title":"Nha\u0300 \u0111e\u0323p khu vip Q3, 35m2, 4 t\u00e2\u0300ng chi\u0309 5.45 ty\u0309","url":"https://www.nhatot.com/mua-ban-nha-dat-Qu\u1eadn-3-tp-ho-chi-minh/102232063.htm"},{"dist":"Qu\u1eadn 3","img":"https://cdn.chotot.com/QLEpzd32rTDogD5wyHfuMfHPalHAzmscx2W4-T95i68/preset:listing/plain/f05f4f7ac8a7924dfa32e9f43a3eb6d9-2804505350258356438.jpg","lat":10.773081,"long":106.68292,"price":22000000000,"title":"\ud83d\udc90 B\u00e1n \u0110\u1ea5t X\u00c2Y C\u0102N H\u1ed8 D\u1ecaCH V\u1ee4 ch\u1ec9 95 Tri\u1ec7u/m2 Q3","url":"https://www.nhatot.com/mua-ban-nha-dat-Qu\u1eadn-3-tp-ho-chi-minh/102231968.htm"},{"dist":"Qu\u1eadn 3","img":"https://cdn.chotot.com/S1waALOH6hZq3fPJOYSWv1Z8-Ib6HhTVI0yomwTMJ-s/preset:listing/plain/b1b391134d7ed0be8e1958f97542dfd4-2796682343578799750.jpg","lat":10.78647,"long":106.67069,"price":2800000000,"title":"Nh\u00e0 h\u1ebbm Tr\u1ea7n V\u0103n \u0110ang Q3 3PN gi\u00e1 3 t\u1ef7 c\u00f2n 2,8 t\u1ef7","url":"https://www.nhatot.com/mua-ban-nha-dat-Qu\u1eadn-3-tp-ho-chi-minh/100513610.htm"},{"dist":"Qu\u1eadn 3","img":"https://cdn.chotot.com/WcDlvnwGetvX4sXGWQqtNmYKqCwgb6cJPnZJc1js10A/preset:listing/plain/70bad20600ecd1b33e2e4b4e9f7b4264-2801136744668387923.jpg","lat":10.7766,"long":106.68852,"price":1350000000,"title":"B\u00e1n G\u1ea5p CH Sai G\u00f2n Pavillon Qu\u1eadn 3 2PN 80m2 1.35t\u1ef7","url":"https://www.nhatot.com/mua-ban-nha-dat-Qu\u1eadn-3-tp-ho-chi-minh/101511237.htm"},{"dist":"Qu\u1eadn 3","img":"https://cdn.chotot.com/ZkLwGBXmwGSBS8NlmDfetBkJADFUdRr6wCehRETfV0s/preset:listing/plain/d70042b3a646f680926579567617c0ad-2803629345195921638.jpg","lat":10.78586,"long":106.67434,"price":22800000000,"title":"C\u1ea7n ti\u1ec1n m\u1edf r\u1ed9ng KD. C\u1ea7n b\u00e1n g\u1ea5p c\u0103n h\u1ed9 d\u1ecbch v\u1ee5!","url":"https://www.nhatot.com/mua-ban-nha-dat-Qu\u1eadn-3-tp-ho-chi-minh/98775886.htm"},{"dist":"Qu\u1eadn 3","img":"https://cdn.chotot.com/RHLiIGJrdKMMnnmr0HjvnIoFpI3aCbkQJLzzNz7_f9M/preset:listing/plain/96e268e0a368712bfc413f22c7652218-2803503835631638443.jpg","lat":10.76723,"long":106.68273,"price":3580000000,"title":"Ch\u00ednh ch\u1ee7 c\u1ea7n b\u00e1n tr\u01b0\u1edbc T\u1ebft, nh\u00e0 h\u1ebbm 4.5m \u1edf Qu\u1eadn 3","url":"https://www.nhatot.com/mua-ban-nha-dat-Qu\u1eadn-3-tp-ho-chi-minh/99383546.htm"},{"dist":"Qu\u1eadn 3","img":"https://cdn.chotot.com/cmJC3BMDITtn5Uei4y5p8Kx1imkYnoYFgogxfukUkEc/preset:listing/plain/142265648a0f59ffb368bfaded1ef01b-2804497913036241335.jpg","lat":10.78397,"long":106.67153,"price":9000000000,"title":"Nh\u00e0 H\u1ebbm 494 9 x 10.5m CMT8 g\u1ea7n ch\u1ee3 H\u00f2a H\u01b0ng Q3","url":"https://www.nhatot.com/mua-ban-nha-dat-Qu\u1eadn-3-tp-ho-chi-minh/102229116.htm"},{"dist":"Qu\u1eadn 3","img":"https://cdn.chotot.com/-kFDBL3nJVCI8q9Ma6FPHzsviVoLQZJA9tNlSHJ9cSM/preset:listing/plain/8faf9e68dacc832db651a65c9d0faa5f-2804496349538896645.jpg","lat":10.78852,"long":106.67191,"price":4500000000,"title":"B\u00e1n nh\u00e0 h\u1ebbm L\u00ea V\u0103n S\u1ef9 th\u00f4ng Tr\u01b0\u1eddng Sa Q.3 (9chu)","url":"https://www.nhatot.com/mua-ban-nha-dat-Qu\u1eadn-3-tp-ho-chi-minh/100292460.htm"},{"dist":"Qu\u1eadn 3","img":"https://cdn.chotot.com/CQYZqC_eNLAQHiNesrb7nhKJe87OR57I6MuxW8r0C1s/preset:listing/plain/4d4253a58ab6944c25bca2fc70eca1e8-2802578058881419180.jpg","lat":10.77836,"long":106.68863,"price":1050000000,"title":"K\u1eb8T TI\u1ec0N B\u00c1N CC TR\u01af\u01a0NG \u0110\u1ecaNH QU\u1eacN 3 85M2 -2PN-1TY05","url":"https://www.nhatot.com/mua-ban-nha-dat-Qu\u1eadn-3-tp-ho-chi-minh/101823284.htm"},{"dist":"Qu\u1eadn 3","img":"https://cdn.chotot.com/0bsFQoMM64bIDdwL3qwYQl6Q3AwIEBLfSN_KYzzZvzQ/preset:listing/plain/fb4f1d9665a721a10f0424ad8d2f333d-2804351822649164934.jpg","lat":10.783449,"long":106.69366,"price":3680000000,"title":"CH\u1ec8 3t\u1ef7680 S\u1ede H\u1eeeU CHCC Terra Royal Q3 72m2 2PN 2wc","url":"https://www.nhatot.com/mua-ban-nha-dat-Qu\u1eadn-3-tp-ho-chi-minh/102228543.htm"},{"dist":"Qu\u1eadn 3","img":"https://cdn.chotot.com/VW1cnPYmeNvEtsvUe6SMtNH9dYjRhAKba0jHF18qB7M/preset:listing/plain/d626e2d0f0e5ac153ef153b587b5e94d-2804360562549135599.jpg","lat":10.773081,"long":106.68292,"price":3180000000,"title":"KHU \u0110\u1eaeC \u0110\u1ecaA NG \u0110\u00ecnh Chi\u1ec3u Q3 3t\u1ef7180 59m2 3PN 3wc","url":"https://www.nhatot.com/mua-ban-nha-dat-Qu\u1eadn-3-tp-ho-chi-minh/102228504.htm"},{"dist":"Qu\u1eadn 3","img":"https://cdn.chotot.com/NN8qlLQl3S8RANEdO9zWCKKq7ixy3Vzwknt-_BiH478/preset:listing/plain/65ef480d4e65f11839c198d33206fd8c-2804495449005009481.jpg","lat":10.77271,"long":106.68063,"price":7100000000,"title":"B\u00c1N NH\u00c0 GI\u00daP NYC","url":"https://www.nhatot.com/mua-ban-nha-dat-Qu\u1eadn-3-tp-ho-chi-minh/102228100.htm"},{"dist":"Qu\u1eadn 3","img":"https://cdn.chotot.com/0j5YdiGTXRSdvKKcXCYeH8Ou_VGLyTCkqvbX3sUIPsk/preset:listing/plain/b361bbdca204bf5530b29da518b54120-2749668371595130475.jpg","lat":10.78731,"long":106.67646,"price":16500000000,"title":"CH\u00cdNH CH\u1ee6 B\u00c1N NH\u00c0 Q3, DT (5x23)115m2 - 16.5 t\u1ef7","url":"https://www.nhatot.com/mua-ban-nha-dat-Qu\u1eadn-3-tp-ho-chi-minh/88268176.htm"},{"dist":"Qu\u1eadn 3","img":"https://cdn.chotot.com/IfLfmrXNlF7TyM5WybkWsJ6ApaAZ7s-S78ddWkXeKj0/preset:listing/plain/69c6890267e3771746a43be5798f246f-2804490850957532470.jpg","lat":10.78799,"long":106.67364,"price":11900000000,"title":"B\u00e1n g\u1ea5p HXH 6m L\u00ea V\u0103n S\u1ef9 ,DT: 5x15m , tr\u1ec7t 2 l\u1ea7u","url":"https://www.nhatot.com/mua-ban-nha-dat-Qu\u1eadn-3-tp-ho-chi-minh/102227353.htm"},{"dist":"Qu\u1eadn 3","img":"https://cdn.chotot.com/BrsBDxfXIWm2PkM-CQxB9FJfhVeIm8hwk7rw31iF9-4/preset:listing/plain/894d9f96905cd657a4e4283bf4bf193e-2800153824900691666.jpg","lat":10.78282,"long":106.68702,"price":3800000000,"title":"\ud83d\udd25\ud83d\udd25\ud83d\udd25\ud83d\udd25B\u00e1n g\u1ea5p c\u0103n nh\u00e0 qu\u1eadn 3 n\u1eb1m s\u00e1t MT 3.8 t\u1ef7 SHR","url":"https://www.nhatot.com/mua-ban-nha-dat-Qu\u1eadn-3-tp-ho-chi-minh/101304897.htm"},{"dist":"Qu\u1eadn 3","img":"https://cdn.chotot.com/81nfj9BzZj8bE35iqjM88fkU1DTCtkQgoD4RNvh3APY/preset:listing/plain/356ed3a9c0870b56aa0edf6bf6fa35e4-2804235202318732520.jpg","lat":10.785578,"long":106.678505,"price":2600000000,"title":"Ch\u00ednh Ch\u1ee7 C\u1ea7n B\u00e1n G\u1ea5p Nh\u00e0 L\u00ea V\u0103n S\u1ef9 , Qu\u1eadn 3","url":"https://www.nhatot.com/mua-ban-nha-dat-Qu\u1eadn-3-tp-ho-chi-minh/102180457.htm"},{"dist":"Qu\u1eadn 3","img":"https://cdn.chotot.com/QjR0qdWet2AL3IkdwaoL1ohCG2WFlOWkeI-WA5oHfh0/preset:listing/plain/bb1df3c9c339ceb355d6c80a146d421c-2803767664867957276.jpg","lat":10.7894,"long":106.67673,"price":3200000000,"title":"B\u00c1N nh\u00e0 \u0111\u1eb9p h\u1ebbm  L\u00ca V\u0102N S\u1ef8  64M2 - nh\u1ec9nh 3 T\u1ef6.","url":"https://www.nhatot.com/mua-ban-nha-dat-Qu\u1eadn-3-tp-ho-chi-minh/102080694.htm"},{"dist":"Qu\u1eadn 3","img":"https://cdn.chotot.com/rvW2D-aMrI5dQny_78PGhRYA05GZcc4FuW6-4PVMGHs/preset:listing/plain/efb400563cf6e39955c3b2f9beaf8710-2804490986616322474.jpg","lat":10.78799,"long":106.67364,"price":21500000000,"title":"C\u1ea7n B\u00e1n Nh\u00e0 G\u00f3c 2 MT L\u00ea V\u0103n S\u1ef9 3 l\u1ea7u, gi\u00e1 21 t\u1ef7 5","url":"https://www.nhatot.com/mua-ban-nha-dat-Qu\u1eadn-3-tp-ho-chi-minh/102226415.htm"},{"dist":"Qu\u1eadn 3","img":"https://cdn.chotot.com/fMsIEX01wFgphK9kSpQY22yoso-6SSp8-t7_RB8umPM/preset:listing/plain/b96c8ea505eb17c15c118b72bea4d6b8-2798701712709394407.jpg","lat":10.782773,"long":106.67998,"price":15500000000,"title":"MT v\u00f2ng xoay D\u00e2n Ch\u1ee7 Q3 Hi\u1ec7n h\u1eefu 15.5 t\u1ef7","url":"https://www.nhatot.com/mua-ban-nha-dat-Qu\u1eadn-3-tp-ho-chi-minh/100979066.htm"},{"dist":"Qu\u1eadn 3","img":"https://cdn.chotot.com/hgeymO0tfnlAyqqdEcZKhYYWCW3Bcz1bpGw9iUUwUf4/preset:listing/plain/8e10cd86293ca2fb4e48a46ab1186b58-2799852605708967482.jpg","lat":10.78468,"long":106.675,"price":19500000000,"title":"B\u00e1n Nh\u00e0 H\u1ebbm Xe H\u01a1i \u0110\u01b0\u1eddng Tr\u1ea7n V\u0103n \u0110ang DT: 6x17","url":"https://www.nhatot.com/mua-ban-nha-dat-Qu\u1eadn-3-tp-ho-chi-minh/101241663.htm"},{"dist":"Qu\u1eadn 3","img":"https://cdn.chotot.com/GD18xPxpilPSlt7TM2mcc9TYsRJsciCFeWVUVQX2QSw/preset:listing/plain/6ec33401b1d17b2c2dba93f2500d411c-2793090359005174090.jpg","lat":10.77208,"long":106.68231,"price":4350000000,"title":"B\u00e1n nh\u00e0 \u0111\u1eb9p, khu cao c\u1ea5p,C\u01b0 X\u00e1 \u0110\u00f4 Th\u00e0nh,P4,Q3","url":"https://www.nhatot.com/mua-ban-nha-dat-Qu\u1eadn-3-tp-ho-chi-minh/99637863.htm"},{"dist":"Qu\u1eadn 3","img":"https://cdn.chotot.com/kVRzUlBdNb7hC60ZZ5DGV1TnVpYPn_tqH5qx4aCQjWQ/preset:listing/plain/153ef85a3e4d25d37be5e3ba2528bb02-2804488289225669034.jpg","lat":10.77113,"long":106.68299,"price":23500000000,"title":"B\u00c1N NH\u00c0 G\u00d3C 2 M\u1eb6T TI\u1ec0N QU\u1eacN 3 255M2 4 L\u1ea6U GI\u00c1 R\u1eba","url":"https://www.nhatot.com/mua-ban-nha-dat-Qu\u1eadn-3-tp-ho-chi-minh/102225209.htm"},{"dist":"Qu\u1eadn 3","img":"https://cdn.chotot.com/RD6e438H-uh9kdGnikJD2Lrx0B7cGWPcGOcN3hzUbOA/preset:listing/plain/3c1d05bc385d34537993ca354cabd067-2804486670333346011.jpg","lat":10.78789,"long":106.67586,"price":3350000000,"title":"B\u00c1N NH\u00c0 M\u1eb6T TI\u1ec0N \u0110\u01af\u1edcNG L\u00ca V\u0102N S\u1ef8, QU\u1eacN 3","url":"https://www.nhatot.com/mua-ban-nha-dat-Qu\u1eadn-3-tp-ho-chi-minh/102224506.htm"},{"dist":"Qu\u1eadn 3","img":"https://cdn.chotot.com/BRWUJk9cUjCawCOMvVybexPtiMtHFBhNdGBlWvNcTv0/preset:listing/plain/c083d670f38518eb48065fc4357e5fd8-2804486616653411501.jpg","lat":10.76991,"long":106.68372,"price":14000000000,"title":"Nh\u00e0 Cao Th\u1eafng Q3","url":"https://www.nhatot.com/mua-ban-nha-dat-Qu\u1eadn-3-tp-ho-chi-minh/102224446.htm"},{"dist":"Qu\u1eadn 3","img":"https://cdn.chotot.com/GhD0R8kbnvZlyXLFy_7O_sw0nxQzUji-zjJIctt8UJw/preset:listing/plain/0b70e59d977945dc408ff53da56a72f0-2801319036575105655.jpg","lat":10.77998,"long":106.67442,"price":4990000000,"title":"NH\u00c0 Q3 , 5 T\u1ea6NG, 4.9 T\u1ec8","url":"https://www.nhatot.com/mua-ban-nha-dat-Qu\u1eadn-3-tp-ho-chi-minh/100300459.htm"},{"dist":"Qu\u1eadn 3","img":"https://cdn.chotot.com/01N7n-Wasz7Rk8FDPkmi6nxWOlni3j4LboMYvv90SpQ/preset:listing/plain/5e00aadb43ec0d05cb3d6b71ecca4bac-2803215218940020429.jpg","lat":10.78798,"long":106.67771,"price":9500000000,"title":"B\u00c1N NH\u00c0 THI\u1ebeT K\u1ebe TUY\u1ec6T \u0110\u1eb8P L\u00ca V\u0102N S\u1ef8 QU\u1eacN 3","url":"https://www.nhatot.com/mua-ban-nha-dat-Qu\u1eadn-3-tp-ho-chi-minh/101962156.htm"},{"dist":"Qu\u1eadn 3","img":"https://cdn.chotot.com/YsTJWuTzyI4j47YXIwPLEO7a3b9LuJ4ox7EVIGBzx-Y/preset:listing/plain/697c7484f2268829022fc5a42f865903-2804366444448962001.jpg","lat":10.78935,"long":106.68566,"price":2980000000,"title":"VIEW TUY\u1ec6T \u0110\u1eb8P! CH TERRA ROYAL Q3 2t\u1ef7980","url":"https://www.nhatot.com/mua-ban-nha-dat-Qu\u1eadn-3-tp-ho-chi-minh/102222577.htm"},{"dist":"Qu\u1eadn 3","img":"https://cdn.chotot.com/lyNRkndmvFYTezKg6c-F8hw6it-hvjJ2V--4vAg0VLU/preset:listing/plain/fe0132ec459768b43a2f132a9f8e51d0-2804359749071419639.jpg","lat":10.78775,"long":106.6818,"price":2250000000,"title":"N\u01a0\u0323 N\u00c2\u0300N ba\u0301n L\u00ea V\u0103n Sy\u0303 Q3 56m2 2ty250 S\u00d4\u0309 RI\u00caNG","url":"https://www.nhatot.com/mua-ban-nha-dat-Qu\u1eadn-3-tp-ho-chi-minh/102222576.htm"},{"dist":"Qu\u1eadn 3","img":"https://cdn.chotot.com/5fuHb93lyeFGN1-uh_h4Dhhv0E3MzHFa9KvVj32Qs20/preset:listing/plain/f4f584af95172dc5e5b7e7fbf5989e3e-2804350604840480486.jpg","lat":10.77113,"long":106.68299,"price":2470000000,"title":"SANG T\u00caN NGAY! Nh\u00e0 Nguy\u1ec5n \u0110\u00ecnh Chi\u1ec3u Q3, 2t\u1ef7470","url":"https://www.nhatot.com/mua-ban-nha-dat-Qu\u1eadn-3-tp-ho-chi-minh/102222522.htm"},{"dist":"Qu\u1eadn 3","img":"https://cdn.chotot.com/FpL123VviKpjiHVa5Qnlx_zoSAekeXyftnzmTvNKTKo/preset:listing/plain/6d3cf708604aa4b7e8594550813f707a-2791571208397004626.jpg","lat":10.78571,"long":106.68833,"price":3650000000,"title":"Nh\u00e0 G\u00f3c 2MT h\u1ebbm NAM K\u00cc KH\u1edeI NGH\u0128A, 28m2, HHMG","url":"https://www.nhatot.com/mua-ban-nha-dat-Qu\u1eadn-3-tp-ho-chi-minh/99276353.htm"},{"dist":"Qu\u1eadn 3","img":"https://cdn.chotot.com/raQ-e-PpI3mEtpuKZbCm6YUoea1xU8Z-5MqfI-PdGuA/preset:listing/plain/8303742211b49d14d356b19c4de83958-2803938834070259532.jpg","lat":10.76945,"long":106.67933,"price":8400000000,"title":"c\u1ea7n ti\u1ec1n b\u00e1n g\u1ea5p nh\u00e0 trong ch\u1ee3 b\u00e0n c\u1edd","url":"https://www.nhatot.com/mua-ban-nha-dat-Qu\u1eadn-3-tp-ho-chi-minh/102118666.htm"},{"dist":"Qu\u1eadn 3","img":"https://cdn.chotot.com/LVNQFgZQlh1tYfixjU4vvIu3FD1Vnz7c4Jsa3zxpqmM/preset:listing/plain/da825dc2f76399b0be3a7057708f416f-2804036906705725202.jpg","lat":10.77676,"long":106.68776,"price":40000000000,"title":"B\u00e1n nh\u00e0 m\u1eb7t ti\u1ec1n \u0111\u01b0\u1eddng H\u1ed3 Xu\u00e2n H\u01b0\u01a1ng qu\u1eadn 3","url":"https://www.nhatot.com/mua-ban-nha-dat-Qu\u1eadn-3-tp-ho-chi-minh/102130887.htm"},{"dist":"Qu\u1eadn 3","img":"https://cdn.chotot.com/bHLjmhrCpZ-B0yPBpcn-ZMpYVuH-HZ1V36e1w46o5TU/preset:listing/plain/fa4e5a08c0da26d60d9b6fe31d9f314d-2804472277753561175.jpg","lat":10.76968,"long":106.68503,"price":28000000000,"title":"B\u00c1N NH\u00c0 3 L\u1ea6U DT 6x18m \u0110\u01af\u1edcNG CAO TH\u1eaeNG PH\u01af\u1edcNG 5 Q3","url":"https://www.nhatot.com/mua-ban-nha-dat-Qu\u1eadn-3-tp-ho-chi-minh/102218971.htm"},{"dist":"Qu\u1eadn 3","img":"https://cdn.chotot.com/0rlQxhtXbXREnrYvp9rGuEf6ffFe7xnpNC7dPG3WTBU/preset:listing/plain/bef987d1f4888c1d9f99b05c66aef97b-2804470082258860458.jpg","lat":10.78918,"long":106.6749,"price":4750000000,"title":"Nh\u00e0 ch\u00ednh ch\u1ee7 429 \u0110\u01b0\u1eddng L\u00ea V\u0103n S\u1ef9 P12 Q3 TPHCM","url":"https://www.nhatot.com/mua-ban-nha-dat-Qu\u1eadn-3-tp-ho-chi-minh/102218004.htm"},{"dist":"Qu\u1eadn 3","img":"https://cdn.chotot.com/ZUL-6cpIbD62kyad_2F2HyF7DZu-aj8mAPdFccf8I9M/preset:listing/plain/1c79b40e0125b8b0f6fd31644227e9dd-2804469952165640618.jpg","lat":10.78832,"long":106.67981,"price":7250000000,"title":"HXH Tr\u1ea7n Quang Di\u1ec7u Q3,4 T\u1ea7ng 42m2 Ngang Kh\u1ee7ng5,5m","url":"https://www.nhatot.com/mua-ban-nha-dat-Qu\u1eadn-3-tp-ho-chi-minh/102217963.htm"},{"dist":"Qu\u1eadn 3","img":"https://cdn.chotot.com/1ccAFjmGyGHzEn9Pv28u6UkaesEDc1dj4lchfT30l8Q/preset:listing/plain/5e141c5374e21849ad0ed87b407c2de7-2801281046722948841.jpg","lat":10.77113,"long":106.68299,"price":1850000000,"title":"N\u1ee2 B\u00c1N G\u1ea4P NH\u00c0 NGUY\u1ec4N \u0110\u00ccNH CHI\u1ec2U PH\u01af\u1edcNG 4 - QU\u1eacN 3","url":"https://www.nhatot.com/mua-ban-nha-dat-Qu\u1eadn-3-tp-ho-chi-minh/101548554.htm"},{"dist":"Qu\u1eadn 3","img":"https://cdn.chotot.com/UBHpgT_QY_FiPRkz-2pyqFuMkZqhV9rIbR8Mpj4-LDw/preset:listing/plain/c304bf40d61dc5a87fb7367cd11bb991-2804469647164342359.jpg","lat":10.78687,"long":106.67671,"price":7799000000,"title":"NHI\u0309NH 7TY ,HE\u0309M XE TA\u0309I 351 L\u00ca V\u0102N SY\u0303 Q3,77M2","url":"https://www.nhatot.com/mua-ban-nha-dat-Qu\u1eadn-3-tp-ho-chi-minh/102217690.htm"},{"dist":"Qu\u1eadn 3","img":"https://cdn.chotot.com/yfQvxPNu3rvzniRYL1LPFhBPxC5BpO7ZByPO0Z4yxPI/preset:listing/plain/aa539bfb4a78913257a782e2194b5c5c-2790299891993203806.jpg","lat":10.783449,"long":106.69366,"price":22000000000,"title":"Nh\u00e0 MT Nguy\u1ec5n V\u0103n Mai,Q 3, 90m2,4.5x20,22 t\u1ef7(TL)","url":"https://www.nhatot.com/mua-ban-nha-dat-Qu\u1eadn-3-tp-ho-chi-minh/98959036.htm"},{"dist":"Qu\u1eadn 3","img":"https://cdn.chotot.com/jKj982nSaoY7g5sCJxGFnBRZdtLCwI_sfg0sFozS73M/preset:listing/plain/7c0a3e2aedf51d421c325e44114739d6-2801275955596683536.jpg","lat":10.79185,"long":106.66256,"price":1990000000,"title":"\u0110I LOANH QUANH C\u00d3 C\u0102N NH\u00c0 GI\u1eeeA TRUNG T\u00c2M QU\u1eacN 3","url":"https://www.nhatot.com/mua-ban-nha-dat-Qu\u1eadn-3-tp-ho-chi-minh/101543013.htm"},{"dist":"Qu\u1eadn 3","img":"https://cdn.chotot.com/9jDDx0mXrd9N3Cp0UP9HiWwFjH3M97QorpJWicHQgPo/preset:listing/plain/61b57e3cd6cf008d6fb9ce6d85d859ab-2796057433640029195.jpg","lat":10.78571,"long":106.68833,"price":8950000000,"title":"HXH Nam K\u1ef3 Kh\u1edfi Ngh\u0129a P7,Q3,45m2,5T,7PN, Ch\u1ec98ty950","url":"https://www.nhatot.com/mua-ban-nha-dat-Qu\u1eadn-3-tp-ho-chi-minh/100349705.htm"},{"dist":"Qu\u1eadn 3","img":"https://cdn.chotot.com/DJPOujTgUwxgh2ov-hobXcQpiZoRGIJXv-eeOe3h-tE/preset:listing/plain/677e37f04b03581bd02fbc6df9753eb5-2801299704305426602.jpg","lat":10.78253,"long":106.68212,"price":1980000000,"title":"CH\u00cdNH CH\u1ee6 C\u1ea6N B\u00c1N NH\u00c0 K\u1ef2 \u0110\u1ed2NG P9 QU\u1eacN 3","url":"https://www.nhatot.com/mua-ban-nha-dat-Qu\u1eadn-3-tp-ho-chi-minh/101565380.htm"},{"dist":"Qu\u1eadn 3","img":"https://cdn.chotot.com/h897YVBwdtUDzoiDUz4Y89U7O-5tlEDofZewTmX7swA/preset:listing/plain/ec12d6c0f525976552a7948c984de41e-2804462329800641285.jpg","lat":10.783449,"long":106.69366,"price":8200000000,"title":"SALE S\u1ed0C. Qu\u1eadn 3. 7x10m, 3 t\u1ea7ng, nh\u1ec9nh 8 t\u1ef7","url":"https://www.nhatot.com/mua-ban-nha-dat-Qu\u1eadn-3-tp-ho-chi-minh/102215243.htm"},{"dist":"Qu\u1eadn 3","img":"https://cdn.chotot.com/O5oMme3V81NGd50y1TLcAGXQ-md8aW6wP9F7V9BhNC8/preset:listing/plain/9d1d0cc44f73eebdc9736321ee3051d1-2795927844036838235.jpg","lat":10.77271,"long":106.68063,"price":5200000000,"title":"Ch\u00ednh ch\u1ee7 b\u00e1n g\u1ea5p nh\u00e0  cx \u0110\u00f4 Th\u00e0nh Qu\u1eadn 3","url":"https://www.nhatot.com/mua-ban-nha-dat-Qu\u1eadn-3-tp-ho-chi-minh/99897012.htm"},{"dist":"Qu\u1eadn 3","img":"https://cdn.chotot.com/JncCq91C0cuu-sWFweHrhJQyqnw-rWbdnFGX0uML-XI/preset:listing/plain/19c921fa4e5f2697cb30c91b4e5befa6-2793761775018182409.jpg","lat":10.77717,"long":106.68418,"price":4500000000,"title":"B\u00e1n nh\u00e0 h\u1ebbm xe h\u01a1i B\u00e0n C\u1edd P.3 Q.3","url":"https://www.nhatot.com/mua-ban-nha-dat-Qu\u1eadn-3-tp-ho-chi-minh/99812665.htm"},{"dist":"Qu\u1eadn 3","img":"https://cdn.chotot.com/0YLCqAQi7_O1M60TEtH9APZrq9EACLTCJrSCWLNuvlw/preset:listing/plain/1f679302edbc4d087ed33e1b56986d95-2804463661563506902.jpg","lat":10.78397,"long":106.67153,"price":13300000000,"title":"65m2 \u0111\u01b0\u1eddng 6m CMT8 Q3 nh\u00e0 m\u1edbi v\u00e0o \u1edf ngay","url":"https://www.nhatot.com/mua-ban-nha-dat-Qu\u1eadn-3-tp-ho-chi-minh/102214460.htm"},{"dist":"Qu\u1eadn 3","img":"https://cdn.chotot.com/MgxPK0uvy0AfdSU52ZpiF9zA4iJP0h4ehfNHP4IxbKU/preset:listing/plain/6dc4e67d6ac6389694d655846201d7f4-2796089692027848760.jpg","lat":10.78104,"long":106.6777,"price":8000000000,"title":"Nh\u00e0 Q3 - G\u00f3c 2 m\u1eb7t ti\u1ec1n h\u1ebbm xe h\u01a1i","url":"https://www.nhatot.com/mua-ban-nha-dat-Qu\u1eadn-3-tp-ho-chi-minh/97796522.htm"},{"dist":"Qu\u1eadn 3","img":"https://cdn.chotot.com/crFI8g6pbn1XTTroTdMZuFKw-BIjC2nnJpsuxjsQRE0/preset:listing/plain/95d91bf360786b6e59f725ceec979355-2804463129340392621.jpg","lat":10.782773,"long":106.67998,"price":580000000,"title":"Cho thu\u00ea bi\u1ec7t th\u1ef1 1000m2 Tr\u1ea7n Qu\u1ed1c Th\u1ea3o Qu\u1eadn 3","url":"https://www.nhatot.com/mua-ban-nha-dat-Qu\u1eadn-3-tp-ho-chi-minh/102214143.htm"},{"dist":"Qu\u1eadn 3","img":"https://cdn.chotot.com/N7ahTnLQZZU5UNKIdHl3aiDxqMjmrUHNUPXIROfynqY/preset:listing/plain/093bd2ade2bdfe4191d23822788dd1f0-2795469821893376994.jpg","lat":10.78329,"long":106.67744,"price":4200000000,"title":"Nh\u00e0 1tr\u1ec7t 3L\u1ea7u h\u1ebbm 3m \u0111\u01b0\u1eddng Tr\u1ea7n V\u0103n \u0110ang.p9.Q3.","url":"https://www.nhatot.com/mua-ban-nha-dat-Qu\u1eadn-3-tp-ho-chi-minh/100216887.htm"},{"dist":"Qu\u1eadn 3","img":"https://cdn.chotot.com/LjPs2kuWU4eYJ9xYuekXq4Qbgq4wruq15pXlUcgLq3s/preset:listing/plain/cd0c4466b29ae78a88b2ffc2c89465e7-2804461569828815067.jpg","lat":10.78655,"long":106.6878,"price":100000000000,"title":"B\u00e1n Bi\u1ec7t Ph\u1ee7 Q3 S\u00e2n v\u01b0\u1eddn HXT 410m2 nh\u1ec9nh 100 t\u1ef7","url":"https://www.nhatot.com/mua-ban-nha-dat-Qu\u1eadn-3-tp-ho-chi-minh/102213690.htm"},{"dist":"Qu\u1eadn 3","img":"https://cdn.chotot.com/AtD9o1SaLfehG9X4jgNXEdnvI5zMDyxhxa17Vp1iljQ/preset:listing/plain/2aea7e2cc70ff05ff56b9760481a5d31-2804462044551555657.jpg","lat":10.78939,"long":106.67786,"price":3700000000,"title":"Nh\u00e0 H\u1ebbm 18 5x5m 2 L\u1ea7u Tr\u1ea7n Quang Di\u1ec7u Q3","url":"https://www.nhatot.com/mua-ban-nha-dat-Qu\u1eadn-3-tp-ho-chi-minh/102213525.htm"},{"dist":"Qu\u1eadn 3","img":"https://cdn.chotot.com/_5X3Pph0CgVvRNHts2sTlC3HNAQYvnCi0Q_0SJkVbFc/preset:listing/plain/6cb225030f8c7e306dfe0faf1561e1e3-2804314956632909584.jpg","lat":10.788729,"long":106.675766,"price":6800000000,"title":"b\u00e1n nh\u00e0 HXH l\u00ea v\u0103n s\u1ef9.p12.q3 3.5x11 1T 4L 6.8 t\u1ef7","url":"https://www.nhatot.com/mua-ban-nha-dat-Qu\u1eadn-3-tp-ho-chi-minh/102180468.htm"},{"dist":"Qu\u1eadn 3","img":"https://cdn.chotot.com/SBLuC7w0k99LbGeYYnBi-KasODscPUZNglajssdkoBk/preset:listing/plain/580bd73040bec789af7287e6db5b3112-2795806581035124210.jpg","lat":10.78661,"long":106.67794,"price":29000000000,"title":"Ch\u1ec9 170tr/m2 HXT \u0111\u01b0\u1eddng L\u00ea V\u0103n S\u1ef9 Q3 6.5x29 29t\u1ef7","url":"https://www.nhatot.com/mua-ban-nha-dat-Qu\u1eadn-3-tp-ho-chi-minh/100304317.htm"},{"dist":"Qu\u1eadn 3","img":"https://cdn.chotot.com/6NP-CF-mqLk9-LwEQ__J4h3D96vjU0xotBM560_LS2c/preset:listing/plain/5a97581e947e8d18dbd8f7bcf42cea60-2802893006391620566.jpg","lat":10.7766,"long":106.68852,"price":1780000000,"title":"B\u00c1N G\u1ea4P CH SAIGON PAVILLON Q.3 80M2 2PN 1 T\u1ef6 780Tr","url":"https://www.nhatot.com/mua-ban-nha-dat-Qu\u1eadn-3-tp-ho-chi-minh/101896497.htm"},{"dist":"Qu\u1eadn 3","img":"https://cdn.chotot.com/4j1c3AJZQSjZkUCfcAmmq42Xmc4DilPPCkb37GJdnwY/preset:listing/plain/03a4b73d375d5d2599083dd4c3198355-2799680847185506735.jpg","lat":10.77676,"long":106.68776,"price":2150000000,"title":"NG\u1ed8P BANK B\u00c1N G\u1ea4P NH\u00c0 \u0110\u01af\u1edcNG H\u1ed2 XU\u00c2N H\u01af\u01a0NG Q3","url":"https://www.nhatot.com/mua-ban-nha-dat-Qu\u1eadn-3-tp-ho-chi-minh/101197148.htm"},{"dist":"Qu\u1eadn 3","img":"https://cdn.chotot.com/ZviIktgkcA4VH91qu48KAZzQyu6TbhRqvfye9r_2OGE/preset:listing/plain/685bbecd30662902e1771656f02d6f64-2804371879624833758.jpg","lat":10.785578,"long":106.678505,"price":2790000000,"title":"GI\u00c1 G\u1ed0C \u0110\u1ed8C QUY\u1ec0N  Tr\u1ea7n Quang Di\u1ec7u Q3 57m2 2,7T\u1ef7","url":"https://www.nhatot.com/mua-ban-nha-dat-Qu\u1eadn-3-tp-ho-chi-minh/102212084.htm"},{"dist":"Qu\u1eadn 3","img":"https://cdn.chotot.com/W5-smnngYAZSqr69BbsFLpjCnRgYCNgu7Z6OD8M4Gfg/preset:listing/plain/4b70f19e5356733ec80b6fb8103e535d-2780990292890917307.jpg","lat":10.78915,"long":106.67168,"price":5000000000,"title":"Nh\u00e0 b\u00e1n \u0111\u1eb9p","url":"https://www.nhatot.com/mua-ban-nha-dat-Qu\u1eadn-3-tp-ho-chi-minh/96890754.htm"},{"dist":"Qu\u1eadn 3","img":"https://cdn.chotot.com/xyS6tJbDlhhdciw9rfn5kO0cCvvtrrfye3Ko2HecpLo/preset:listing/plain/02140e96b37289903201b6b54b354707-2804457513897263323.jpg","lat":10.78282,"long":106.68702,"price":1640000000,"title":"B\u00e1n Nh\u00e0 Ch\u00ednh Ch\u1ee7 C\u1ef1c \u0110\u1eb9p Ngay V\u00f5 Th\u1ecb S\u00e1u Q3, HXH","url":"https://www.nhatot.com/mua-ban-nha-dat-Qu\u1eadn-3-tp-ho-chi-minh/102211618.htm"},{"dist":"Qu\u1eadn 3","img":"https://cdn.chotot.com/MWVC-4jNBLTw8dioifYwwrgk_BdDv982y3PgAQDxi4Y/preset:listing/plain/a48d0973fb0fdb6cc5c745de47a97502-2765609431570822574.jpg","lat":10.77524,"long":106.68329,"price":4550000000,"title":"Nh\u00e0 h\u1ebbm n\u1ed9i b\u1ed9 Nguy\u1ec5n Hi\u1ec1n Q.3 (c\u01b0 X\u00e1 \u0110\u00f4 Th\u00e0nh)","url":"https://www.nhatot.com/mua-ban-nha-dat-Qu\u1eadn-3-tp-ho-chi-minh/93440145.htm"},{"dist":"Qu\u1eadn 3","img":"https://cdn.chotot.com/yweP6qdppu27z4yeibHahcsvVUzlrgDAH6YtrXd6prk/preset:listing/plain/4cc469e8dd3b5c6cadf3c3ae9914f01b-2789670426814461428.jpg","lat":10.77048,"long":106.68655,"price":20000000000,"title":"Nh\u00e0 Nguy\u1ec5n Th\u1ecb Minh Khai F5 Q3 4.5x15 NH 7m 20 t\u1ef7","url":"https://www.nhatot.com/mua-ban-nha-dat-Qu\u1eadn-3-tp-ho-chi-minh/98802173.htm"},{"dist":"Qu\u1eadn 3","img":"https://cdn.chotot.com/_aOas7WSOcldKut1JaUvmoOgUod-t7TS5vMs6l8mmE4/preset:listing/plain/3a15f5352fa69f79d59693de5ee6247c-2801705794089257740.jpg","lat":10.78939,"long":106.67786,"price":1790000000,"title":"THANH L\u00dd NH\u00c0 H\u1ebaM \u0110\u01af\u1edcNG TR\u1ea6N QUANG DI\u1ec6U, P14,QU\u1eacN 3","url":"https://www.nhatot.com/mua-ban-nha-dat-Qu\u1eadn-3-tp-ho-chi-minh/101637989.htm"},{"dist":"Qu\u1eadn 3","img":"https://cdn.chotot.com/9G9qGwG5-34vFvp9KvV5aUXgrPy4m4lV5jvle48mz0U/preset:listing/plain/322bad4c03c754e1249846e94722594f-2804410933062542450.jpg","lat":10.77894,"long":106.68294,"price":3040000000,"title":"\u0110.C\u01af \u00daC B\u00c1N NH\u00c0 SHR NGUY\u1ec4N TH\u00d4NG Q3 52M2 3 T\u1ef6 40TR","url":"https://www.nhatot.com/mua-ban-nha-dat-Qu\u1eadn-3-tp-ho-chi-minh/102209445.htm"},{"dist":"Qu\u1eadn 3","img":"https://cdn.chotot.com/y5SYAHHbhPip77vryjm22KgFKr3qeN5JHCxwFpjpqCQ/preset:listing/plain/e12ae9c31693c7ea0746ea8100fe86e3-2804449360804906566.jpg","lat":10.78183,"long":106.67548,"price":6000000000,"title":"Q3-Nh\u00e0 4L\u1ea7u \u1edf ngay ngang 5,4mC3 ra HXT45m2Ch\u1ec9 6t\u1ef7","url":"https://www.nhatot.com/mua-ban-nha-dat-Qu\u1eadn-3-tp-ho-chi-minh/102209382.htm"},{"dist":"Qu\u1eadn 3","img":"https://cdn.chotot.com/oQY0I5JKFcLuFZ7OL-dStFZONHfLSJnnckocFlCwNGA/preset:listing/plain/306791f97f9735e231932695c97709a1-2798382814437974700.jpg","lat":10.78891,"long":106.69997,"price":3850000000,"title":"CH\u00da NAM B\u00c1N NH\u00c0 1L \u0110G NG \u0110\u00ccNH CHI\u1ec2U Q3 60M2/3TY850","url":"https://www.nhatot.com/mua-ban-nha-dat-Qu\u1eadn-3-tp-ho-chi-minh/100896980.htm"},{"dist":"Qu\u1eadn 3","img":"https://cdn.chotot.com/m7ofXt_xF_uWlVgvbiEapIDs7cwQu5Zqo7_rMucfK7E/preset:listing/plain/c80474b3b155227d51524ab6e6f4ae52-2804390541744586990.jpg","lat":10.76945,"long":106.67933,"price":2420000000,"title":"\u0110\u1ecaNH C\u01af B\u00c1N NH\u00c0 1T2L \u0110.NGUY\u1ec4N \u0110\u00ccNH CHI\u1ec4U, Q3 65M2","url":"https://www.nhatot.com/mua-ban-nha-dat-Qu\u1eadn-3-tp-ho-chi-minh/102209007.htm"},{"dist":"Qu\u1eadn 3","img":"https://cdn.chotot.com/MrRAPxFu2LnMsqELXsZNvs8YcEVb69xn7a12muBUiyQ/preset:listing/plain/e76d3b15c9b5e42e28bf5e7f73ed2b81-2803353471414907594.jpg","lat":10.78661,"long":106.67794,"price":2370000000,"title":"V\u1ec0 QU\u00ca B\u00c1N NH\u00c0 1T1L L\u00ca V\u0102N S\u1ef8-Q3 55M2 C\u00d2N TL","url":"https://www.nhatot.com/mua-ban-nha-dat-Qu\u1eadn-3-tp-ho-chi-minh/101999851.htm"},{"dist":"Qu\u1eadn 3","img":"https://cdn.chotot.com/ycLSjB7IF3A52z4trLko6FVi_kA8JGNQ-Tvgi5cbQ-g/preset:listing/plain/022c3a6a4bdeb3ed852a0c0e446e81ba-2798128964456018418.jpg","lat":10.78655,"long":106.6878,"price":8000000000,"title":"Nh\u00e0 c\u1ea7n b\u00e1n g\u1ea5p t\u1ed5ng 3 c\u0103n k\u1ec1 nhau khu v\u1ef1c VIP Q3","url":"https://www.nhatot.com/mua-ban-nha-dat-Qu\u1eadn-3-tp-ho-chi-minh/95563338.htm"},{"dist":"Qu\u1eadn 3","img":"https://cdn.chotot.com/DnR79FT6qEaIRD-35bD5QHpbWd3qvfb-VU9bRWah3NY/preset:listing/plain/7e85e95492ea6170d9732a7b7bef4e22-2804072932299798550.jpg","lat":10.7861,"long":106.67838,"price":5200000000,"title":"B\u00c1N NH\u00c0 M\u1eb6T TI\u1ec0N QU\u1eacN 3 - N\u1ede H\u1eacU - THANH KHO\u1ea2NT\u1ed0T","url":"https://www.nhatot.com/mua-ban-nha-dat-Qu\u1eadn-3-tp-ho-chi-minh/102140745.htm"},{"dist":"Qu\u1eadn 3","img":"https://cdn.chotot.com/OtTei74C-5TcTJpMdcPcx7stVzpJpCdIbO5qzy7dg4I/preset:listing/plain/81e3c1142599bc5f744b2d96f2695e73-2786703885547654102.jpg","lat":10.77271,"long":106.68063,"price":22000000000,"title":"Nhanh tay mua nh\u00e0 r\u1ed9ng khu CX\u0110T!!!","url":"https://www.nhatot.com/mua-ban-nha-dat-Qu\u1eadn-3-tp-ho-chi-minh/98165774.htm"},{"dist":"Qu\u1eadn 3","img":"https://cdn.chotot.com/hHB9TM5yyEt4ulNql0ABo0MBtINsTTgod-ai6i_WzYI/preset:listing/plain/ccc8b6ad1b4af5022985cd224e0ea669-2804394868261230211.jpg","lat":10.785578,"long":106.678505,"price":14000000000,"title":"M\u1eb7t ti\u1ec1n Tr\u01b0\u1eddng Sa Q3, dt 4x14m, v\u1ec9a h\u00e8 4m","url":"https://www.nhatot.com/mua-ban-nha-dat-Qu\u1eadn-3-tp-ho-chi-minh/102207261.htm"},{"dist":"Qu\u1eadn 3","img":"https://cdn.chotot.com/zaM9lJTmzOVolTTgeLJ88BwbbKEmDks-fqlQ2uAe0yY/preset:listing/plain/255daf645b6eeb6726c481802e3dac47-2792286319807716026.jpg","lat":10.78889,"long":106.67186,"price":5000000000,"title":"HXH khu v\u1ef1c L\u00ea v\u0103n S\u1ef9 65 m2 ch\u1ec9 c\u00f3 5 t\u1ef7","url":"https://www.nhatot.com/mua-ban-nha-dat-Qu\u1eadn-3-tp-ho-chi-minh/99439460.htm"},{"dist":"Qu\u1eadn 3","img":"https://cdn.chotot.com/Rk_h5AvQxIa9Yax-AT9pulQ0mI8DaLRChiMbOUqyedo/preset:listing/plain/2decc51dddf93c6d69789ae294dd4e09-2804354095224140396.jpg","lat":10.77474,"long":106.68136,"price":1680000000,"title":"\u0110\u1eb8P Y H\u00ccNH! nh\u00e0 \u0110i\u1ec7n Bi\u00ean Ph\u1ee7, P4, Qu\u1eadn 3, 45m SHR","url":"https://www.nhatot.com/mua-ban-nha-dat-Qu\u1eadn-3-tp-ho-chi-minh/102205577.htm"},{"dist":"Qu\u1eadn 3","img":"https://cdn.chotot.com/H7Sfs5S2HU8RpkvVuOhmMmeUsiFMY4igF8ALTTK49Xk/preset:listing/plain/a33d81778091ac2771e92cfd0bb13aa4-2802353197934859547.jpg","lat":10.78466,"long":106.68458,"price":4750000000,"title":"NH\u00c0 M\u1edaI \u0110\u1eb8P CH\u1ee6 C\u1ea6N THANH L\u00dd THU V\u1ed0N \u0110\u1ea6U T\u01af QU\u1eacN 3","url":"https://www.nhatot.com/mua-ban-nha-dat-Qu\u1eadn-3-tp-ho-chi-minh/101782166.htm"},{"dist":"Qu\u1eadn 3","img":"https://cdn.chotot.com/FHTjHtYelZjuntHkv45ZCj4sZ8D1OvyLI6A5lVwB9r4/preset:listing/plain/53245bbc3f7bbccf0d8de7d5b3218d8f-2804205967864930702.jpg","lat":10.78253,"long":106.68212,"price":3680000000,"title":"NH\u00c0 M\u1eb6T TI\u1ec0N Q3_K\u1ef2 \u0110\u1ed2NG_P9_DT 65m2_3T\u1ef6680","url":"https://www.nhatot.com/mua-ban-nha-dat-Qu\u1eadn-3-tp-ho-chi-minh/102171212.htm"},{"dist":"Qu\u1eadn 3","img":"https://cdn.chotot.com/Gyp4YvdjOGGzX5fwul1D98Kt9NuFuA88IC6kZJ9nGiE/preset:listing/plain/ac611bdcec5ee8198af1b70adc10a766-2804220346956310975.jpg","lat":10.78648,"long":106.679,"price":3850000000,"title":"C\u00f4 Q\u00fay \u0110i M\u1ef9 B\u00e1n Nh\u00e0 72m2 L\u00ea V\u0103n S\u1ef9, Q.3 - 3,85 t\u1ef7","url":"https://www.nhatot.com/mua-ban-nha-dat-Qu\u1eadn-3-tp-ho-chi-minh/102170305.htm"},{"dist":"Qu\u1eadn 3","img":"https://cdn.chotot.com/_Q26r388hUUEMDrtU30CJMvsaeiigRVYiuMyhiiW-QU/preset:listing/plain/af154d6b4971f0642a8875706fdaa55a-2796729229761308946.jpg","lat":10.7773,"long":106.68929,"price":1450000000,"title":"b\u00e1n nh\u00e0 Nguy\u1ec5n \u0110\u00ecnh Chi\u1ec3u Q3 70m2 1ty450 SHR 1T1L","url":"https://www.nhatot.com/mua-ban-nha-dat-Qu\u1eadn-3-tp-ho-chi-minh/100521868.htm"},{"dist":"Qu\u1eadn 3","img":"https://cdn.chotot.com/7rHwChI6vfsrnS9qf5AD5mN19MEbIR_iVTlwWr131WE/preset:listing/plain/74361719b6099d32c23e9f44930bb653-2804368192128379196.jpg","lat":10.77354,"long":106.68393,"price":3450000000,"title":"Kh\u00f4ng \u1ede N\u00ean B\u00e1n  Nh\u00e0  1T 2L H\u1ebbm Xe H\u01a1i Th\u00f4ng Th\u00e1ng","url":"https://www.nhatot.com/mua-ban-nha-dat-Qu\u1eadn-3-tp-ho-chi-minh/102201674.htm"},{"dist":"Qu\u1eadn 3","img":"https://cdn.chotot.com/Elwgq2xZU0gTgBclAJztuJ1h7LWqgs-DFIsQB3N9WN8/preset:listing/plain/dff7a1c3229352c9caa2f5c891a8cd4a-2804367179239511505.jpg","lat":10.78925,"long":106.67709,"price":1980000000,"title":"Gi\u1ea3i Quy\u1ebft T\u00e0i Ch\u00ednh B\u00e1n G\u1ea5p Nh\u00e0 45M2 2PN Q3","url":"https://www.nhatot.com/mua-ban-nha-dat-Qu\u1eadn-3-tp-ho-chi-minh/102201470.htm"},{"dist":"Qu\u1eadn 3","img":"https://cdn.chotot.com/P_vlGmyWvcBgDQ-f8mQ-J34mGXhJvj5dJY4LW861tbs/preset:listing/plain/869a8c66f0aee335d8fccbe9328728f6-2804363019831881446.jpg","lat":10.77259,"long":106.68557,"price":4500000000,"title":"B\u00c1N G\u1ea4P NH\u00c0 H\u1ebaM NGUY\u1ec4N \u0110\u00ccNH CHI\u1ec2U 39M2 4.5T\u1ef6, Q.3","url":"https://www.nhatot.com/mua-ban-nha-dat-Qu\u1eadn-3-tp-ho-chi-minh/102201090.htm"},{"dist":"Qu\u1eadn 3","img":"https://cdn.chotot.com/cvWOzjzvRM75EDZyHSTc8kMAdm9le_rM78ld5Cv8V8g/preset:listing/plain/944c49f0fb53a1522b905d38b7db1a55-2802431827268886640.jpg","lat":10.78677,"long":106.6783,"price":14500000000,"title":"Gi\u1ea3m 3 t\u1ef7 5.B\u00e1n nh\u00e0 MT Tr\u1ea7n Quang Di\u1ec7u p13 Qu\u1eadn 3,","url":"https://www.nhatot.com/mua-ban-nha-dat-Qu\u1eadn-3-tp-ho-chi-minh/101789867.htm"},{"dist":"Qu\u1eadn 3","img":"https://cdn.chotot.com/4sN2hnIUuC4Uo8Oxr1FYbioQqh7KZ33paQ0IXSEBiZU/preset:listing/plain/20f9f1d077f7d0f7ff434c6475319901-2804360571843844335.jpg","lat":10.78145,"long":106.67868,"price":8800000000,"title":"Nh\u00e0 HXH 3,3x13 4T\u1ea7ng Nguy\u1ec5n Ph\u00fac Nguy\u00ean Gi\u00e1 8,8 t\u1ef7","url":"https://www.nhatot.com/mua-ban-nha-dat-Qu\u1eadn-3-tp-ho-chi-minh/102199510.htm"},{"dist":"Qu\u1eadn 3","img":"https://cdn.chotot.com/pQUQyKhTutMnrwtbSgBOE8cFK4pew2MP7lOw5GN0ZK8/preset:listing/plain/e0d623fd85e5ec62c2efb72e0ee9f533-2804360355685085804.jpg","lat":10.77894,"long":106.68294,"price":8700000000,"title":"B\u00c1N NH\u00c0 M\u1edaI X\u00c2Y 4M2x12M NGAY TRUNG T\u00c2M QU\u1eacN 3","url":"https://www.nhatot.com/mua-ban-nha-dat-Qu\u1eadn-3-tp-ho-chi-minh/102199454.htm"},{"dist":"Qu\u1eadn 3","img":"https://cdn.chotot.com/wFE_DzeOi5eFu24B0OeUYNbb4418IWeAkbi_DQ1ug7g/preset:listing/plain/6f6d049297db9f690e3535eca2906780-2779958006310405370.jpg","lat":10.78399,"long":106.6715,"price":5200000000,"title":"5,2t\u1ef7\ud83d\udca5x\u00e2y m\u1edbi 100% 6ph\u00f2ng ng\u1ee7 ,wc ri\u00eang","url":"https://www.nhatot.com/mua-ban-nha-dat-Qu\u1eadn-3-tp-ho-chi-minh/96624251.htm"},{"dist":"Qu\u1eadn 3","img":"https://cdn.chotot.com/WyR4cCJh1xX2pEyPREw66YneFZz43ELOHsQ0-du90ts/preset:listing/plain/5d72c157e436fbcc483abf93d2c7d959-2796821501441075726.jpg","lat":10.78661,"long":106.67794,"price":2980000000,"title":"K\u1eb8T TI\u1ec0N C\u1ea6N B\u00c1N NH\u00c0 \u0110\u1ec2 CH\u1eeeA B\u1ec6NH","url":"https://www.nhatot.com/mua-ban-nha-dat-Qu\u1eadn-3-tp-ho-chi-minh/100544534.htm"},{"dist":"Qu\u1eadn 3","img":"https://cdn.chotot.com/a4gcQPpabWhKPfMqbRGZlTOFjwExICVJu92TQYJAokw/preset:listing/plain/9563013241be790a5004e69c581d826f-2804358487891324646.jpg","lat":10.78395,"long":106.69211,"price":6200000000,"title":"Nh\u00e0 Trung T\u00e2m Qu\u1eadn 3 PASTEUR B\u00e1n G\u1ea5p","url":"https://www.nhatot.com/mua-ban-nha-dat-Qu\u1eadn-3-tp-ho-chi-minh/102198698.htm"},{"dist":"Qu\u1eadn 3","img":"https://cdn.chotot.com/Ohg1J7y3eDNuOY4azJgZq1u4IpEr5JbpG4KsaXP3OV4/preset:listing/plain/17ffa3e5845ba1f92c9110ce2eb7b873-2804356902195652924.jpg","lat":10.73975,"long":106.66104,"price":1600000000,"title":"B\u00e1n c\u0103n h\u1ed9 chung c\u01b0 B\u00f9i M\u00ecnh Tr\u1ef1c F6 Q8","url":"https://www.nhatot.com/mua-ban-nha-dat-Qu\u1eadn-3-tp-ho-chi-minh/102198192.htm"},{"dist":"Qu\u1eadn 3","img":"https://cdn.chotot.com/rmn6JQ5gdynrhHwcy9ZaUA-oNJ0RlVDmBNAHbLWDP0A/preset:listing/plain/2ca520e9a5d86ced7b12bb5cef0af88c-2804355281494617830.jpg","lat":10.78282,"long":106.68702,"price":10500000000,"title":"B\u00e1n g\u1ea5p nh\u00e0 M\u1eb7t Ti\u1ec1n - Gi\u00e1 ch\u1ec9 10,5 t\u1ef7 (TL)","url":"https://www.nhatot.com/mua-ban-nha-dat-Qu\u1eadn-3-tp-ho-chi-minh/102197711.htm"},{"dist":"Qu\u1eadn 3","img":"https://cdn.chotot.com/oKUQZ808k60_OKU3r8b2NFQ-DI_cuBoXgi_cfsOOz8k/preset:listing/plain/e6fecc11ab27440302225ffdbdc64a73-2804354942320586470.jpg","lat":10.77717,"long":106.68418,"price":17500000000,"title":"B\u00e1n g\u1ea5p MT \u0110BP Q3 67m2 3L ch\u1ec9 17.5 t\u1ef7 TL","url":"https://www.nhatot.com/mua-ban-nha-dat-Qu\u1eadn-3-tp-ho-chi-minh/102197452.htm"},{"dist":"Qu\u1eadn 3","img":"https://cdn.chotot.com/2jhQeVKRvOtQpD4v7jNxey_Iacy44GMPgQaqX0nrUT8/preset:listing/plain/d4bdd980cc4399d08bf3ed2b68be6b33-2794179644649301103.jpg","lat":10.78677,"long":106.6783,"price":2580000000,"title":"C\u0103n h\u1ed9 chung c\u01b0 Tr\u1ea7n Quang Di\u1ec7u, Q3: l\u1ea7u 3, 43.2m2","url":"https://www.nhatot.com/mua-ban-nha-dat-Qu\u1eadn-3-tp-ho-chi-minh/99901081.htm"},{"dist":"Qu\u1eadn 3","img":"https://cdn.chotot.com/WNddHel3bqAR2Y36aq0OcbxbNsn5ttthgVqhodnC1XE/preset:listing/plain/53c4f93f27f99e5e87f41d08f7a56e52-2804353565644871121.jpg","lat":10.78131,"long":106.67672,"price":4500000000,"title":"Nh\u00e0 ng\u1ed9p gi\u00e1 r\u1ebb 4.5 t\u1ef7 . Trung t\u00e2m Qu\u1eadn 3 .","url":"https://www.nhatot.com/mua-ban-nha-dat-Qu\u1eadn-3-tp-ho-chi-minh/102197160.htm"},{"dist":"Qu\u1eadn 3","img":"https://cdn.chotot.com/tVbPh0eZWpPNaJu-l9RLzi8lwKpQdpS_FeReecFqd0M/preset:listing/plain/ad69891d8618058fe6178d40925bd4e2-2803324365769508557.jpg","lat":10.7766,"long":106.68852,"price":1560000000,"title":"V\u1ec0 B\u1eaeC S\u1ed0NG N\u00caN B\u00c1N L\u1ea0I CH 72M2 SAIGON PAVILLON Q3","url":"https://www.nhatot.com/mua-ban-nha-dat-Qu\u1eadn-3-tp-ho-chi-minh/101981617.htm"},{"dist":"Qu\u1eadn 3","img":"https://cdn.chotot.com/UY-vAzgabiZCh_VBmV4Ve7QSddUzQOu6SMiCkHIsTno/preset:listing/plain/cad816bdd7f34e7084381250e6d57706-2804346587395256519.jpg","lat":10.77717,"long":106.68418,"price":20100000000,"title":"B\u00e1n G\u00f3c \u0110i\u1ec7n Bi\u00ean Ph\u1ee7+B\u00e0n C\u1edd,Q3_DT:7x9_Gi\u00e1 20,1 T\u1ef7","url":"https://www.nhatot.com/mua-ban-nha-dat-Qu\u1eadn-3-tp-ho-chi-minh/102194304.htm"},{"dist":"Qu\u1eadn 3","img":"https://cdn.chotot.com/XEX7A0x3s6afNb8G6ULfQ917CJ_LVURG4HXG7RNjobw/preset:listing/plain/a3ce29e25a545f5ff55cd9e54ce9e417-2804346057090892372.jpg","lat":10.788544,"long":106.67408,"price":5200000000,"title":"NH\u00c0 H\u1ebcM 4M L\u00ca V\u0102N S\u1ef8 Q3, 5,2 T\u1ef6","url":"https://www.nhatot.com/mua-ban-nha-dat-Qu\u1eadn-3-tp-ho-chi-minh/102194154.htm"},{"dist":"Qu\u1eadn 3","img":"https://cdn.chotot.com/INFrWdkNNepCIXNfBmcqafzskTc-YepE0YLjcoGG0gc/preset:listing/plain/8484c7494a5b86b62e5d81469dffde95-2804346686883174639.jpg","lat":10.76991,"long":106.68372,"price":6700000000,"title":"H\u1ebbm 3m ngay V\u00f5 v\u0103n T\u1ea7n nh\u00e0 v\u00e0o \u1edf ngay P.5,Q.3","url":"https://www.nhatot.com/mua-ban-nha-dat-Qu\u1eadn-3-tp-ho-chi-minh/102194046.htm"},{"dist":"Qu\u1eadn 3","img":"https://cdn.chotot.com/-X25BbVsltu8kf-rLFtXXQjzxdsxVNF8rwIZapyuSaE/preset:listing/plain/610b1134d0910ed8461e0fab4411b1de-2798838934017292508.jpg","lat":10.78395,"long":106.69211,"price":6440000000,"title":"Nh\u00e0 Trung T\u00e2m Qu\u1eadn 3 PASTEUR HXHi SHR B\u00e1n G\u1ea5p","url":"https://www.nhatot.com/mua-ban-nha-dat-Qu\u1eadn-3-tp-ho-chi-minh/101008116.htm"},{"dist":"Qu\u1eadn 3","img":"https://cdn.chotot.com/AxZWAyBg2o5zPIyJU59RsTmgs9qy3zBsO37NaGBcqbw/preset:listing/plain/3207e69b469e42d52ae31b1d615314d4-2790392898553479714.jpg","lat":10.77059,"long":106.68156,"price":4300000000,"title":"CH\u00cdNH CH\u1ee6 NG\u1ed8P BANK C\u1ea6N B\u00c1N NH\u00c0","url":"https://www.nhatot.com/mua-ban-nha-dat-Qu\u1eadn-3-tp-ho-chi-minh/98972054.htm"},{"dist":"Qu\u1eadn 3","img":"https://cdn.chotot.com/1X0xl9P7G36mUKWOg7CY1zwKzcIyMxFU-4dd9pSz3cw/preset:listing/plain/bbb6697588daddad84fe89444d9cda6a-2804340835332602103.jpg","lat":10.76659,"long":106.678,"price":1560000000,"title":"B\u00e1n Nh\u00e0 H\u1ebbm Xe H\u01a1i V\u1eeba \u0110\u1eb9p, M\u1edbi,r\u1ebb Ngay L\u00fd Th\u00e1i T\u1ed5","url":"https://www.nhatot.com/mua-ban-nha-dat-Qu\u1eadn-3-tp-ho-chi-minh/102191928.htm"},{"dist":"Qu\u1eadn 3","img":"https://cdn.chotot.com/I-b6PbtzQPo9rkeqz8em8rpI61AvuDJOCrXUNzKxYeY/preset:listing/plain/4d59592836232ac45e4c566fb3637746-2804336794341004753.jpg","lat":10.788544,"long":106.67408,"price":7700000000,"title":"Gi\u1ea3m 1.3 t\u1ef7, gi\u00e1 m\u1edbi 7.7 t\u1ef7 c\u00f2n tl, L\u00ca V\u0102N S\u1ef8,","url":"https://www.nhatot.com/mua-ban-nha-dat-Qu\u1eadn-3-tp-ho-chi-minh/102190349.htm"},{"dist":"Qu\u1eadn 3","img":"https://cdn.chotot.com/5TWe6VAl1vsNxdym8lZQlnWs_uE5kUf2KDLhfXYRIL4/preset:listing/plain/f34ed94cdb409edc8f2c3ef54790a03c-2804336686541186162.jpg","lat":10.788544,"long":106.67408,"price":7700000000,"title":"Gi\u1ea3m shock 1.3 t\u1ef7, gi\u00e1 m\u1edbi 7.7 t\u1ef7, L\u00ca V\u0102N S\u1ef8, Q3","url":"https://www.nhatot.com/mua-ban-nha-dat-Qu\u1eadn-3-tp-ho-chi-minh/102190313.htm"},{"dist":"Qu\u1eadn 3","img":"https://cdn.chotot.com/yxIAbzV2YkmPpDsbUjYsDDPkCyX22HSqqjc8OhHz6Hs/preset:listing/plain/dde88b96084f4c162c972630b27c4cfa-2803591843155086530.jpg","lat":10.78282,"long":106.68702,"price":12800000000,"title":"B\u00e1n nh\u00e0 m\u1eb7t ti\u1ec1n, kinh doanh m\u1ecdi ng\u00e0nh, s\u00e1t MT l\u1edbn","url":"https://www.nhatot.com/mua-ban-nha-dat-Qu\u1eadn-3-tp-ho-chi-minh/102036910.htm"},{"dist":"Qu\u1eadn 3","img":"https://cdn.chotot.com/Q6ZNFcpcL1puDutA_3WffH-8dlMi0F2kNKW81aO_SEo/preset:listing/plain/fb20faf68ac8fbc5a3cc918e6406c05a-2799092463709367555.jpg","lat":10.78483,"long":106.67459,"price":6200000000,"title":"B\u00e1n nh\u00e0 5pn Ho\u00e0ng Sa-Q3, 5x6m, ch\u1ee7 \u0111\u1ecbnh c\u01b0","url":"https://www.nhatot.com/mua-ban-nha-dat-Qu\u1eadn-3-tp-ho-chi-minh/101054879.htm"},{"dist":"Qu\u1eadn 3","img":"https://cdn.chotot.com/fQMrtogeFzkckyVyzHaidxWN-Vl9C6962iU5ca6-KDk/preset:listing/plain/489e94da376c838bae9288eadcd7fc55-2800257329204982176.jpg","lat":10.76792,"long":106.67902,"price":1360000000,"title":"S\u1ede H\u1eeeU NGAY NH\u00c0 HXH NGUY\u1ec4N THI\u1ec6N THU\u1eacT P1 Q3 47M2","url":"https://www.nhatot.com/mua-ban-nha-dat-Qu\u1eadn-3-tp-ho-chi-minh/101321892.htm"},{"dist":"Qu\u1eadn 3","img":"https://cdn.chotot.com/rrHkibciVp130SC8A2pN4zzqZK1v-WWnyBSLx-DFBE8/preset:listing/plain/0dc575f9f0e00fade9e796dc23e731fa-2794659169103089410.jpg","lat":10.80377,"long":106.68065,"price":5400000000,"title":"B\u00e1n nh\u00e0 Nguy\u1ec5n \u0110\u00ecnh Chi\u1ec3u ,4 t\u1ea7ng, HXH,gi\u00e1 5.4 t\u1ef7","url":"https://www.nhatot.com/mua-ban-nha-dat-Qu\u1eadn-3-tp-ho-chi-minh/100032878.htm"},{"dist":"Qu\u1eadn 3","img":"https://cdn.chotot.com/TA3_5P9A5U0jFWKttWeJ1rkeWTF9TUeHH9N8JEohJAI/preset:listing/plain/9ad60b40247ccbbf192ea6189cd7040d-2804326473674429086.jpg","lat":10.77356,"long":106.68305,"price":4200000000,"title":"Nha\u0300  m\u01a1\u0301i \u0111e\u0323p Q3, 32m2(4x8m), 2t\u00e2\u0300ng chi\u0309 4.2ty\u0309","url":"https://www.nhatot.com/mua-ban-nha-dat-Qu\u1eadn-3-tp-ho-chi-minh/102186405.htm"},{"dist":"Qu\u1eadn 3","img":"https://cdn.chotot.com/_mQvFV9Xf0sx59veeVj5dAPJuCdt_JnhwwX9yp8-0Hk/preset:listing/plain/e2648450b272d460bd4c89192b3047eb-2804326369159710623.jpg","lat":10.78677,"long":106.6783,"price":14900000000,"title":"H\u1ea1 gi\u00e1 c\u00f2n 14,9 t\u1ef7 MT Tr\u1ea7n Quang Di\u1ec7u Q3 62m2 3 L","url":"https://www.nhatot.com/mua-ban-nha-dat-Qu\u1eadn-3-tp-ho-chi-minh/102185950.htm"},{"dist":"Qu\u1eadn 3","img":"https://cdn.chotot.com/vVykUGZKXq0u7vXQWD98Jtuyf-Ll2URBM70E8Qvbbh4/preset:listing/plain/f069c2d4e3126294a1c5c7e62ac0c082-2781442802857609889.jpg","lat":10.771797,"long":106.68534,"price":22000000000,"title":"Nha\u0300 2 t\u00e2\u0300ng V\u00f5 V\u0103n T\u1ea7n (8,2mx9,6m)","url":"https://www.nhatot.com/mua-ban-nha-dat-Qu\u1eadn-3-tp-ho-chi-minh/96970873.htm"},{"dist":"Qu\u1eadn 3","img":"https://cdn.chotot.com/63Lt8p661jd7GDWrx0Gr0Hd9tS2vWiqViX5t7lMcw8w/preset:listing/plain/6aeb65c75feebe89534197a9f3170ebb-2804321517957615961.jpg","lat":10.78282,"long":106.68702,"price":6300000000,"title":"B\u00e1n nh\u00e0 HXH 2MT - Ho\u00e0ng Sa - Trung t\u00e2m Q.3- 6,3 t\u1ef7","url":"https://www.nhatot.com/mua-ban-nha-dat-Qu\u1eadn-3-tp-ho-chi-minh/102183875.htm"},{"dist":"Qu\u1eadn 3","img":"https://cdn.chotot.com/k92xX7bFyZdgJnk9ouuST1Ul6aU_3evtEliLdSSza2k/preset:listing/plain/038ba379a19c1b148dea1c6c781ea49a-2798175297851926299.jpg","lat":10.78397,"long":106.67153,"price":6500000000,"title":"Nh\u00e0 h\u1ebbm g\u00f3c 2MT \u0111\u01b0\u1eddng C\u00e1ch M\u1ea1ng Th\u00e1ng T\u00e1m, P11, Q3","url":"https://www.nhatot.com/mua-ban-nha-dat-Qu\u1eadn-3-tp-ho-chi-minh/100849623.htm"},{"dist":"Qu\u1eadn 3","img":"https://cdn.chotot.com/IMqHFzQaAw1SUBFztSx57lidmb8NL2Z_BTrhlRHzKPI/preset:listing/plain/fafc66506f4730b02386b97fe9e50fe9-2803443966501673970.jpg","lat":10.78573,"long":106.67262,"price":3200000000,"title":"B\u00c1N NH\u00c0 G\u1ea4P \u1ede Q3 MT \u0110\u01af\u1edcNG GI\u00c13TY200TR5*7,4=37m SHR","url":"https://www.nhatot.com/mua-ban-nha-dat-Qu\u1eadn-3-tp-ho-chi-minh/102003604.htm"},{"dist":"Qu\u1eadn 3","img":"https://cdn.chotot.com/ug-6ZGHmU8rKMnM4AVdnNR3a1geJev25CMTJBJB2bw0/preset:listing/plain/52e90ba11079eb5e27ad87bb30e64fea-2804315671210464899.jpg","lat":10.785578,"long":106.678505,"price":17500000000,"title":"Nh\u00e0 M\u1edbi h\u1ebbm 8m L\u00ea V\u0103n S\u1ef9, Q3, Dt 5,5x17m, 4 T\u1ea7ng","url":"https://www.nhatot.com/mua-ban-nha-dat-Qu\u1eadn-3-tp-ho-chi-minh/102180790.htm"},{"dist":"Qu\u1eadn 3","img":"https://cdn.chotot.com/gS5N17ozerNO4PMrVvc-cy9d8ZjcduEUWh83NlKw35c/preset:listing/plain/6e6f1f0b974d4d1d7cd2016cf45218d5-2798208141709188361.jpg","lat":10.78145,"long":106.67868,"price":13800000000,"title":"13t\u1ef7800 B\u00e1n Nh\u00e0 MT 78A Nguy\u1ec5n Ph\u00fac Nguy\u00ean. P9. Q3","url":"https://www.nhatot.com/mua-ban-nha-dat-Qu\u1eadn-3-tp-ho-chi-minh/100850096.htm"},{"dist":"Qu\u1eadn 3","img":"https://cdn.chotot.com/ZXjITmREwjGpgMVh1meWA2ZPhx_omrxtTOlLC0pHws4/preset:listing/plain/c722a85db6c4e9ae0306f20e8d1146a9-2796110319906641237.jpg","lat":10.78397,"long":106.67153,"price":3050000000,"title":"NH\u00c0 HXH 1/ C\u00c1CH M\u1ea0NG TH\u00c1NG 8 P.11 Q.3-3T\u1ef6050-44m2","url":"https://www.nhatot.com/mua-ban-nha-dat-Qu\u1eadn-3-tp-ho-chi-minh/100372100.htm"},{"dist":"Qu\u1eadn 3","img":"https://cdn.chotot.com/AeeXGxRLlecX5smCFqtRiuLVHRptFg_ClolTcA6wgwM/preset:listing/plain/7fe2fb4589a6d34f059371e6edb61aef-2802903973661149835.jpg","lat":10.78625,"long":106.67189,"price":20000000000,"title":"ch\u00ednh ch\u1ee7 b\u00e1n CHDV m\u1edbi x\u00e2y","url":"https://www.nhatot.com/mua-ban-nha-dat-Qu\u1eadn-3-tp-ho-chi-minh/101900243.htm"},{"dist":"Qu\u1eadn 3","img":"https://cdn.chotot.com/2wzZZSnupiKI29OyLWS26Ky3NtvegUOjVYmrG1ZwVI0/preset:listing/plain/98fc5fee19b554427523fe72fe043acd-2804310959036577665.jpg","lat":10.77011,"long":106.68072,"price":5700000000,"title":"1 B\u01af\u1edaC RA CH\u1ee2 V\u00c0I B\u01af\u1edaC RA M\u1eb6T TI\u1ec0N.KHU V\u1ef0C S\u1ea6M U\u1ea4T","url":"https://www.nhatot.com/mua-ban-nha-dat-Qu\u1eadn-3-tp-ho-chi-minh/102178880.htm"},{"dist":"Qu\u1eadn 3","img":"https://cdn.chotot.com/9RzkUCVa68CevGWS3ATvvt67ftHgTRvIzHbSoHepSG8/preset:listing/plain/e9424b84af36e5ab154309242017045b-2789876879522897853.jpg","lat":10.773948,"long":106.682434,"price":5300000000,"title":"Nh\u00e0 h\u1ebbm 554// Nguy\u1ec5n \u0110\u00ecnh Chi\u1ec3u. th\u00f4ng t\u1ee9 tung","url":"https://www.nhatot.com/mua-ban-nha-dat-Qu\u1eadn-3-tp-ho-chi-minh/97010685.htm"},{"dist":"Qu\u1eadn 3","img":"https://cdn.chotot.com/G6lK_GqSjM44FEen6QaPKIfe7I_xNjJXLMxj86H66Wg/preset:listing/plain/40ff0bc83aadda9896136cc17f1c9e44-2804307977644378572.jpg","lat":10.78789,"long":106.67586,"price":5200000000,"title":"L\u00ea v\u0103n s\u1ef9 qu\u1eadn 3 . 36m2 . 4 t\u1ea7ng ch\u1ec9 5.2 t\u1ef7 TL .","url":"https://www.nhatot.com/mua-ban-nha-dat-Qu\u1eadn-3-tp-ho-chi-minh/102178048.htm"},{"dist":"Qu\u1eadn 3","img":"https://cdn.chotot.com/PCIDQH1Qawzk_ltyc_ZfnNl3x8T0J-FXTyKyDVeoia4/preset:listing/plain/8b40e5ed7e89c58a5262bb6bc0788224-2804251674682099615.jpg","lat":10.78253,"long":106.68212,"price":19500000000,"title":"H\u1ebbm 10m \u00f4t\u00f4 K\u1ef2 \u0110\u1ed2NG(5X15m)6 t\u1ea7ng,thag m\u00e1y,H\u0110T 50tr","url":"https://www.nhatot.com/mua-ban-nha-dat-Qu\u1eadn-3-tp-ho-chi-minh/102175345.htm"},{"dist":"Qu\u1eadn 3","img":"https://cdn.chotot.com/8HMBMByrK6T7URArXNrt43BA4thw8S99MT2O-9bko6g/preset:listing/plain/0171e60e8099a58afb18d9c9d0810b83-2804238569624830099.jpg","lat":10.78131,"long":106.67672,"price":10000000000,"title":"HXH CMT8 Q3 \u274c68m2 L\u00d4 G\u00d3C 5 t\u1ea7ng B\u00c1N G\u1ea4P H\u1ea0 3 t\u1ef7","url":"https://www.nhatot.com/mua-ban-nha-dat-Qu\u1eadn-3-tp-ho-chi-minh/102172983.htm"},{"dist":"Qu\u1eadn 3","img":"https://cdn.chotot.com/M5Z7e_7DGN9IDBoDLXRK2A5HiAcmXn6DEfQksPEPiCM/preset:listing/plain/1a5cd355137e7438d5b24201e57e2652-2804113615538473524.jpg","lat":10.78935,"long":106.68566,"price":1850000000,"title":"B\u00e1n g\u1ea5p CH Terra Royal C\u00f3 S\u1ed5 1 T\u1ef6 850 2PN 2WC Q3","url":"https://www.nhatot.com/mua-ban-nha-dat-Qu\u1eadn-3-tp-ho-chi-minh/102148858.htm"},{"dist":"Qu\u1eadn 3","img":"https://cdn.chotot.com/WnNj-vI_VGS-WwB4EVqHNzaAaM92lZzdFhr4Iijg8VA/preset:listing/plain/2cd3ab405df4bc374d49a20e5b89ade5-2785047605142980745.jpg","lat":10.77007,"long":106.68072,"price":3480000000,"title":"B\u00c1N NH\u00c0 \u0110\u1eb8P S\u1eb4N N\u1ed8I TH\u1ea4T TRUNG T\u00c2M QU\u1eacN 3 3 T\u1ef6 480","url":"https://www.nhatot.com/mua-ban-nha-dat-Qu\u1eadn-3-tp-ho-chi-minh/97780043.htm"},{"dist":"Qu\u1eadn 3","img":"https://cdn.chotot.com/dH209ewVfoon8ktAMj3JOeH030GaFU8CKeX-0DDKZxI/preset:listing/plain/0c25eb9ee9385d18870bd78ae57acd4b-2804225787772797066.jpg","lat":10.76991,"long":106.68372,"price":48000000000,"title":"M\u1eb6T TI\u1ec0N NGUY\u1ec4N \u0110\u00ccNH CHI\u1ec2U, Q.3. 6.5x15m. 48 T\u1ef7 TL","url":"https://www.nhatot.com/mua-ban-nha-dat-Qu\u1eadn-3-tp-ho-chi-minh/102170048.htm"},{"dist":"Qu\u1eadn 3","img":"https://cdn.chotot.com/TUyyyXGXpbYhnn4vr4WvPYBTq-k4RiaiidRlDCqHqEM/preset:listing/plain/45f24d81f275035c58868a3a26b505b1-2804220821470371870.jpg","lat":10.78253,"long":106.68212,"price":4300000000,"title":"78m Cc S\u00f4ng \u0110\u00e0 Tower Nh\u00e0 \u0110\u1eb9p \u0110\u00f3n T\u1ebft 2PN 2WC P9 Q3","url":"https://www.nhatot.com/mua-ban-nha-dat-Qu\u1eadn-3-tp-ho-chi-minh/102168842.htm"},{"dist":"Qu\u1eadn 3","img":"https://cdn.chotot.com/7iMlykAk9kPyMk95bZoFNSSWY27GrXlcs50PB-B8Gcw/preset:listing/plain/86ec532b180c4ad1b0c4fb6670bbe822-2804218541455016001.jpg","lat":10.78253,"long":106.68212,"price":4700000000,"title":"B\u00c1N NH\u00c0 \u0110\u01af\u1edcNG K\u1ef2 \u0110\u1ed2NG M\u1edaI X\u00c2Y \u0110\u1eb8P LUNG LINH 4.7 T\u1ef7","url":"https://www.nhatot.com/mua-ban-nha-dat-Qu\u1eadn-3-tp-ho-chi-minh/102168176.htm"},{"dist":"Qu\u1eadn 3","img":"https://cdn.chotot.com/GqPvs3AL3mALONZLrqxzRJ4zERoaaTNHuMFxfzz4mmM/preset:listing/plain/c39ddb7ada50c65b9ad3df8c65c3b1c6-2804217105018888590.jpg","lat":10.78775,"long":106.6818,"price":4650000000,"title":"Nha\u0300 \u0111e\u0323p ngang 5m Q3,38m2 , \u01a1\u0309 ngay chi\u0309 4.65 ty\u0309","url":"https://www.nhatot.com/mua-ban-nha-dat-Qu\u1eadn-3-tp-ho-chi-minh/102167961.htm"},{"dist":"Qu\u1eadn 3","img":"https://cdn.chotot.com/C2s1EOecapz--nLGGFsLdhKl3y-k87auSPnhhiJI01U/preset:listing/plain/9c6a239f34e53adf1ad80ef17c2405d4-2801463542390378274.jpg","lat":10.78282,"long":106.68702,"price":9500000000,"title":"Nh\u00e0 \u0111\u1eb9p - h\u1ebbm xinh cho t\u00edn \u0111\u1ed3 Vintage","url":"https://www.nhatot.com/mua-ban-nha-dat-Qu\u1eadn-3-tp-ho-chi-minh/101593590.htm"},{"dist":"Qu\u1eadn 3","img":"https://cdn.chotot.com/tHAbnBrhJADb-dl_JLHmXzBgG-1cAD-4ctXNm7mU9ks/preset:listing/plain/3a558c561d6877d0f94d9a9ddb02b1ad-2804214759174096238.jpg","lat":10.78064,"long":106.68945,"price":2420000000,"title":"C\u1ea7n b\u00e1n c\u0103n h\u1ed9 chung c\u01b0 qu\u1eadn 3","url":"https://www.nhatot.com/mua-ban-nha-dat-Qu\u1eadn-3-tp-ho-chi-minh/102167260.htm"},{"dist":"Qu\u1eadn 3","img":"https://cdn.chotot.com/L78BK01IW6J34lD7ZxWCu23cW5KG6F3kc53t3HsJElc/preset:listing/plain/97f5d168e1a57fe783e63269d6f32ec3-2804215168201371986.jpg","lat":10.77113,"long":106.68299,"price":6200000000,"title":"NH\u00c0 H\u1ebaM 1 X\u1eb8T NGUY\u1ec4N \u0110\u00ccNH CHI\u1ec2U P4 Q3.","url":"https://www.nhatot.com/mua-ban-nha-dat-Qu\u1eadn-3-tp-ho-chi-minh/102167186.htm"},{"dist":"Qu\u1eadn 3","img":"https://cdn.chotot.com/UBfCDpN3ZfCb_9nBNgQ6al3gc8VrkNCSQZ1rpZ3sDbo/preset:listing/plain/ed7173143820de9abf9edc0c95a4bc8e-2804213853217194049.jpg","lat":10.76982,"long":106.68037,"price":7200000000,"title":"Nha\u0300 m\u01a1\u0301i \u0111e\u0323p trung t\u00e2m Q3,48m2, 4PN chi\u0309 7.2 ty\u0309","url":"https://www.nhatot.com/mua-ban-nha-dat-Qu\u1eadn-3-tp-ho-chi-minh/102166798.htm"},{"dist":"Qu\u1eadn 3","img":"https://cdn.chotot.com/W0y7iqfeUfX53qe_cqsd5yVpHKT8gas1qyw8Y9RLeJM/preset:listing/plain/7db26c116d176a55746d51b3e50af4e6-2804212356887890411.jpg","lat":10.78571,"long":106.68833,"price":8600000000,"title":"B\u00e1n nh\u00e0 nguy\u00ean c\u0103n \u0111\u01b0\u1eddng Nam K\u1ef3 Kh\u1edfi Ngh\u0129a-Qu\u1eadn 3","url":"https://www.nhatot.com/mua-ban-nha-dat-Qu\u1eadn-3-tp-ho-chi-minh/102166210.htm"},{"dist":"Qu\u1eadn 3","img":"https://cdn.chotot.com/ahFxRWt0cT_tF_jQUuK2sg-UwdUNx6fcmSljqe3muWo/preset:listing/plain/fc8aac2537d1a6efb36f20d62867592d-2804209914310721601.jpg","lat":10.77565,"long":106.68951,"price":10500000000,"title":"NH\u00c0 SI\u00caU PH\u1ea8M V\u00d5 V\u0102N T\u1ea6N 2 CHI\u1ec0U Q 3, 10 t\u1ef7 5 tl","url":"https://www.nhatot.com/mua-ban-nha-dat-Qu\u1eadn-3-tp-ho-chi-minh/102165561.htm"},{"dist":"Qu\u1eadn 3","img":"https://cdn.chotot.com/2Nd0vMse5EsBs_nbhRms2EIvOoYEBU1vtiRq6Y46KkI/preset:listing/plain/7a418db275406153a94ca898d5339753-2804207956836474910.jpg","lat":10.78661,"long":106.67794,"price":19500000000,"title":"Gi\u1ea3m 20% gi\u00e1 bi\u1ec7t th\u1ef1 Q3 h\u1ebbm L\u00ea V\u0103n S\u1ef9 91m2 4 t\u1ea7ng","url":"https://www.nhatot.com/mua-ban-nha-dat-Qu\u1eadn-3-tp-ho-chi-minh/102164798.htm"},{"dist":"Qu\u1eadn 3","img":"https://cdn.chotot.com/bSUWdgWbi8KzZxpe8ilpofVK3oJgEPAJv1w62gaoBus/preset:listing/plain/24099513d908c2355b01b759ad67dfb1-2803164485287056652.jpg","lat":10.78852,"long":106.68526,"price":36000000000,"title":"36 L\u00fd Ch\u00ednh Th\u1eafng ,v\u1ecb tr\u00ed, s\u1ed1 nh\u00e0 \u0111\u1eb9p tuy\u1ec7t \u0111\u1ec9nh.","url":"https://www.nhatot.com/mua-ban-nha-dat-Qu\u1eadn-3-tp-ho-chi-minh/101943778.htm"},{"dist":"Qu\u1eadn 3","img":"https://cdn.chotot.com/S38mmysLqMq8eX_IhgLk5GcgfII5eZxhempdSo-N16g/preset:listing/plain/312ebef5a351d451c8074d4140c9346f-2804202620763828284.jpg","lat":10.77356,"long":106.68305,"price":2430000000,"title":"B\u00e1n nh\u00e0 h\u1ebbm \u0110.V\u01b0\u1eddn Chu\u1ed1i, F4, Q3 40m\u00b2 2 t\u1ef7430","url":"https://www.nhatot.com/mua-ban-nha-dat-Qu\u1eadn-3-tp-ho-chi-minh/102162565.htm"},{"dist":"Qu\u1eadn 3","img":"https://cdn.chotot.com/6hMp-ymogdRIBsS14RX5OldxIC3fE2nSQ-F9NbmISP8/preset:listing/plain/91a7cb70b562fc4539598c1ba90f211f-2804203001484517774.jpg","lat":10.78891,"long":106.69997,"price":6950000000,"title":"Q3 NH\u00c0 5 T\u1ea6NG S\u00c1T CH\u1ee2 B\u00c0N C\u1edc CH\u1ec8 7 T\u1ef6","url":"https://www.nhatot.com/mua-ban-nha-dat-Qu\u1eadn-3-tp-ho-chi-minh/102162555.htm"},{"dist":"Qu\u1eadn 3","img":"https://cdn.chotot.com/_DzEbec5k-pnGYizrx3NY7nnBGuQMJfRWHx8MR1Mlbs/preset:listing/plain/147458ed221e64de407a7e989372b63e-2804199356120821820.jpg","lat":10.76925,"long":106.67838,"price":1800000000,"title":"-CHUNG C\u01af 35.5M2 NGUY\u1ec4N THI\u1ec6N THU\u1eacT.Q3","url":"https://www.nhatot.com/mua-ban-nha-dat-Qu\u1eadn-3-tp-ho-chi-minh/102161107.htm"},{"dist":"Qu\u1eadn 3","img":"https://cdn.chotot.com/vVNAVD5silRVG3LzIc385ROYrDjfyURYuyH8w_8-VBg/preset:listing/plain/9e2b1593335b28bd731e874783eb6c8d-2800281442065707345.jpg","lat":10.79185,"long":106.66256,"price":7500000000,"title":"Gi\u1ea3m s\u1ed1c g\u1ea7n 3 t\u1ef7 b\u00e1n nhanh trong th\u00e1ng","url":"https://www.nhatot.com/mua-ban-nha-dat-Qu\u1eadn-3-tp-ho-chi-minh/101331703.htm"},{"dist":"Qu\u1eadn 3","img":"https://cdn.chotot.com/eFEEvwY6U1uQ_yrnpYf3UEOyyuKO0OJKtXH5V6r4DlM/preset:listing/plain/c9052ff1e0daaa188dfd89cb97c9e2d7-2804184101372442056.jpg","lat":10.76945,"long":106.67933,"price":1620000000,"title":"CH\u00cdNH CH\u1ee6 B\u00c1N G\u1ea4P NH\u00c0 QU\u1eacN 3 44m2 GI\u00c1 1t\u1ef7620 SHR","url":"https://www.nhatot.com/mua-ban-nha-dat-Qu\u1eadn-3-tp-ho-chi-minh/102157503.htm"},{"dist":"Qu\u1eadn 3","img":"https://cdn.chotot.com/late2JV-ZwLCZPytc3WIhcXgtRH790ESAZpoYliyKno/preset:listing/plain/a8f570932990a53e1b8e37444f541327-2801144488724641156.jpg","lat":10.77717,"long":106.68418,"price":11000000000,"title":"C\u1ea7n b\u00e1n nh\u00e0 ch\u00ednh ch\u1ee7 \u0110i\u1ec7n Bi\u00ean Ph\u1ee7 qu\u1eadn 3","url":"https://www.nhatot.com/mua-ban-nha-dat-Qu\u1eadn-3-tp-ho-chi-minh/101514782.htm"},{"dist":"Qu\u1eadn 3","img":"https://cdn.chotot.com/PNR6Mzizi8p2VkkhHEzM_J0mDOCmDrRR_eoS_NVLiwA/preset:listing/plain/108a03aa3ecae4157c0070d4b22f2606-2799903964305227113.jpg","lat":10.78477,"long":106.68463,"price":1200000000,"title":"B\u00e1n nh\u00e0 L\u00fd Ch\u00ednh Th\u1eafng Q3 60m2 1ty2 SHR 1T1L","url":"https://www.nhatot.com/mua-ban-nha-dat-Qu\u1eadn-3-tp-ho-chi-minh/101255979.htm"},{"dist":"Qu\u1eadn 3","img":"https://cdn.chotot.com/L6tmo8MvnrwFD7klOZT6ERZVF5zpqyH85AuSPLuWqVE/preset:listing/plain/5ee9c9333c6145c0519c1fe1d6d53269-2804180789317200486.jpg","lat":10.78131,"long":106.67672,"price":7890000000,"title":"Q3, 2 L\u1ea6U 1 S\u00c2N TH\u01af\u1ee2NG H\u1ebaM XE H\u01a0I C\u00c1CH M\u1ea0NG TH\u00c1NG8","url":"https://www.nhatot.com/mua-ban-nha-dat-Qu\u1eadn-3-tp-ho-chi-minh/102155684.htm"},{"dist":"Qu\u1eadn 3","img":"https://cdn.chotot.com/1wVpFisoaexP1fxoYNwkzJj-wvcswctLUuylS9laApQ/preset:listing/plain/f22f793a670a9fbb28339f684492f289-2801424497699237194.jpg","lat":10.77819,"long":106.68992,"price":1480000000,"title":"CH LEMAN LUXURY Q3_74M2/2PN2WC_GI\u00c1 S\u1ed0C 1,48T\u1ef6","url":"https://www.nhatot.com/mua-ban-nha-dat-Qu\u1eadn-3-tp-ho-chi-minh/101578045.htm"},{"dist":"Qu\u1eadn 3","img":"https://cdn.chotot.com/0h6SieHulWg_xChBbr4uCKOrL_OBwSn5KSKrjKbO6Z8/preset:listing/plain/5a0c6fda560937629478489ff2f27a14-2801159232431620662.jpg","lat":10.78433,"long":106.69403,"price":17500000000,"title":"NH\u00c0 KHU V\u1ef0C TRUNG T\u00c2M S\u00c0I G\u00d2N","url":"https://www.nhatot.com/mua-ban-nha-dat-Qu\u1eadn-3-tp-ho-chi-minh/101522098.htm"},{"dist":"Qu\u1eadn 3","img":"https://cdn.chotot.com/j6AphTYMFBzXeUUNfi-xlX_HuYIecwaE_P4Ptj3Fbjs/preset:listing/plain/cbdb06c42f497e232c6b29f3bf68ff28-2804181760164826124.jpg","lat":10.78699,"long":106.67599,"price":8280000000,"title":"76m2 \u00d4T\u00d4 7ch\u1ed7 \u0111\u1eadu nh\u00e0 Q.3.b\u1edd k\u00e8 Tr\u01b0\u1eddng Sa","url":"https://www.nhatot.com/mua-ban-nha-dat-Qu\u1eadn-3-tp-ho-chi-minh/102154884.htm"},{"dist":"Qu\u1eadn 3","img":"https://cdn.chotot.com/kZRhzPnXSiSZPrJ9c4mJfvy40pZv-AseulVjnk6Hdj8/preset:listing/plain/a18526ae138ea5bad22b087de64a69a8-2784726366258550097.jpg","lat":10.76827,"long":106.68172,"price":11500000000,"title":"C\u0103n nh\u00e0 n\u00e1t ngang 6 g\u00f3c 3 m\u1eb7t ti\u1ec1n gi\u00e1 t\u1ed1t 11.5 t\u1ef7","url":"https://www.nhatot.com/mua-ban-nha-dat-Qu\u1eadn-3-tp-ho-chi-minh/97709568.htm"},{"dist":"Qu\u1eadn 3","img":"https://cdn.chotot.com/hawcmkCLkHloYukT8bBmfzuqWUlv4ihFOKfkImsj73g/preset:listing/plain/db0739927d8c0d3390a91231699359ea-2804178220636078145.jpg","lat":10.77918,"long":106.68852,"price":110000000000,"title":"C\u1ea6N RA G\u1ea4P BI\u00caT TH\u1ef0 KHU VIP TT QU\u1eacN 3, GI\u00c1 T\u1ed0T NH\u1ea4","url":"https://www.nhatot.com/mua-ban-nha-dat-Qu\u1eadn-3-tp-ho-chi-minh/102153628.htm"},{"dist":"Qu\u1eadn 3","img":"https://cdn.chotot.com/StWGbEbH5mJl3tpGVK-r8O9b8ZMzbLA5_O2kmYr8U3c/preset:listing/plain/edbd8e2c7784e9cc01fa165a9be3111d-2799751521595677530.jpg","lat":10.78131,"long":106.67672,"price":4200000000,"title":"B\u00e1n nh\u00e0 CMT8 qu\u1eadn 10, 28m2. Gi\u00e1 4,2 t\u1ef7.","url":"https://www.nhatot.com/mua-ban-nha-dat-Qu\u1eadn-3-tp-ho-chi-minh/101222287.htm"},{"dist":"Qu\u1eadn 3","img":"https://cdn.chotot.com/CrBvmxUWyDnJ5n4M7U76z7n7V4ixp8hB-w7OhbPWlW8/preset:listing/plain/d0a11d50dbe319321a2753ccce1c9069-2804178259650847118.jpg","lat":10.782773,"long":106.67998,"price":13800000000,"title":"C\u1ea6N CHUY\u1ec0N NH\u00c0 N\u00caN MU\u1ed0N B\u00c1N G\u1ea4P","url":"https://www.nhatot.com/mua-ban-nha-dat-Qu\u1eadn-3-tp-ho-chi-minh/102153333.htm"},{"dist":"Qu\u1eadn 3","img":"https://cdn.chotot.com/24MD7Xsk_aHX1DNmCAEwMwaDCQZqcN1pMspXb3V0miM/preset:listing/plain/7f186d74b46bfc3890cd74caf58754f7-2802576120706627801.jpg","lat":10.78891,"long":106.69997,"price":1200000000,"title":"CH\u1ee6 NH\u00c0  B\u00c1N G\u1ea4P NH\u00c0 NGUY\u1ec4N \u0110\u00ccNH CHI\u1ec2U 63m2","url":"https://www.nhatot.com/mua-ban-nha-dat-Qu\u1eadn-3-tp-ho-chi-minh/101822411.htm"},{"dist":"Qu\u1eadn 3","img":"https://cdn.chotot.com/_8evL7Jbvs38_GQqQq3FjxAt_e-iUJK2s5_i_qWp2YU/preset:listing/plain/da19cf3f653a28585aaa8038666eb58c-2740387761523803223.jpg","lat":10.78613,"long":106.67477,"price":3300000000,"title":"B\u00e1n nh\u00e0 H\u1ebdm 4m5 Ho\u00e0ng Sa Q3,DT: 3m5x9, T+3L","url":"https://www.nhatot.com/mua-ban-nha-dat-Qu\u1eadn-3-tp-ho-chi-minh/88392398.htm"},{"dist":"Qu\u1eadn 3","img":"https://cdn.chotot.com/V4DNgg45Hk2JYZQ-paPHuvAsblxU4hEQ1XneTaRQ7iw/preset:listing/plain/c2feaefa4e37717eebb6989c7281c5b2-2788251303037907681.jpg","lat":10.78705,"long":106.6794,"price":36000000000,"title":"H\u00e0ng \u0110\u1ea7u T\u01b0. HXH L\u00ea V\u0103n S\u1ef9. 10x21 Vu\u00f4ng. 175tr/m2.","url":"https://www.nhatot.com/mua-ban-nha-dat-Qu\u1eadn-3-tp-ho-chi-minh/98510533.htm"},{"dist":"Qu\u1eadn 3","img":"https://cdn.chotot.com/xAEraHuYo9CcIV25O_i1pmbT3q4eT_wl3og6xEf7-k8/preset:listing/plain/6d46ac999b6f9a995d8bd21c270c3f4f-2802328845446566444.jpg","lat":10.78253,"long":106.68212,"price":1850000000,"title":"Ch\u00ednh ch\u1ee7 c\u1ea7n b\u00e1n g\u1ea5p c\u0103n h\u1ed9 chung c\u01b0 Qu\u1eadn 3","url":"https://www.nhatot.com/mua-ban-nha-dat-Qu\u1eadn-3-tp-ho-chi-minh/101774188.htm"},{"dist":"Qu\u1eadn 3","img":"https://cdn.chotot.com/-bzsYfJDI04pj8f-xzAzYY2YlDfgdh3Mun1RW2Kf9Mw/preset:listing/plain/3faaa8043c981553300c1d8ec3bcd9fc-2794490654110339504.jpg","lat":10.78909,"long":106.66818,"price":18500000000,"title":"H\u1ebbm 8m Tr\u01b0\u1eddng Sa Qu\u1eadn 3. 5x15. 5 T\u1ea7ng M\u1edbi. 18,5 T\u1ef7","url":"https://www.nhatot.com/mua-ban-nha-dat-Qu\u1eadn-3-tp-ho-chi-minh/99986468.htm"},{"dist":"Qu\u1eadn 3","img":"https://cdn.chotot.com/jMUP7JAMuzgY8lw8OB5samibfgz41pCCO04kObHUmrk/preset:listing/plain/11afc79f8e9b5424328d3a9365b928dd-2800283024006978287.jpg","lat":10.77083,"long":106.6817,"price":36900000000,"title":"B\u00c1N G\u1ea4P MT KHU S\u1ea6M U\u1ea4T B\u1eacC NH\u1ea4T QU\u1eacN 3.Dt 8x15m.","url":"https://www.nhatot.com/mua-ban-nha-dat-Qu\u1eadn-3-tp-ho-chi-minh/101333214.htm"},{"dist":"Qu\u1eadn 3","img":"https://cdn.chotot.com/PblBpkA9nk_e-rM8BxmFH1a91XPwgn8jSxvpfyf-cqo/preset:listing/plain/cbdc0f3f1a08ef9aa3858949da145376-2804162663079853326.jpg","lat":10.78789,"long":106.67586,"price":5200000000,"title":"TT L\u00ca V\u0102N S\u1ef8 QU\u1eacN 3 -32M2- 4 T\u1ea6NG - NH\u1ec8NH 5 T\u1ef6","url":"https://www.nhatot.com/mua-ban-nha-dat-Qu\u1eadn-3-tp-ho-chi-minh/102147942.htm"},{"dist":"Qu\u1eadn 3","img":"https://cdn.chotot.com/zPJ6JZ-YUd1YRr0tusMEHRHMRGLCYdeI_L-sBLgUYZ0/preset:listing/plain/57633f709e801cb78337cd63c4a3ca28-2797658952413041089.jpg","lat":10.77819,"long":106.68992,"price":1970000000,"title":"Ch\u1ee7 g\u1eedi c\u0103n h\u1ed9 cao c\u1ea5p L\u00e9man Qu\u1eadn 3.gi\u00e1 1t\u1ef7970.CSH","url":"https://www.nhatot.com/mua-ban-nha-dat-Qu\u1eadn-3-tp-ho-chi-minh/100731923.htm"},{"dist":"Qu\u1eadn 3","img":"https://cdn.chotot.com/QbVorHVvRxnVzkoEpfTJaBwY5MY5dSFuQo4mATyy0vg/preset:listing/plain/c558cfd7912fab014cd5b226e36db560-2794029292996986224.jpg","lat":10.77011,"long":106.68072,"price":2300000000,"title":"C\u1ea7n b\u00e1n nhanh c\u0103n h\u1ed9 chung c\u01b0 nguy\u1ec5n thi\u1ec7n thu\u1eadt","url":"https://www.nhatot.com/mua-ban-nha-dat-Qu\u1eadn-3-tp-ho-chi-minh/99862791.htm"},{"dist":"Qu\u1eadn 3","img":"https://cdn.chotot.com/RDWuD9iTqwKpywTnxe9R2KIE4VhIMtdCkHCsuAKVY2s/preset:listing/plain/a33c4de3b0fee0040ff290d73170994d-2801276463725693877.jpg","lat":10.78939,"long":106.67786,"price":1650000000,"title":"NH\u00c0 1T1L T.Q.DI\u1ec6U Q3-55m2 H\u1ebaM L\u1edaN C\u00d3 S\u1ed4 H\u1ed2NG RI\u00caNG","url":"https://www.nhatot.com/mua-ban-nha-dat-Qu\u1eadn-3-tp-ho-chi-minh/101564410.htm"},{"dist":"Qu\u1eadn 3","img":"https://cdn.chotot.com/lKDZaqx-A0tjILtVxl9BlTmlhvrQ760J7O9Uu6GXXFs/preset:listing/plain/458a9fd866483a98b286ff0496e8065e-2804096040315612306.jpg","lat":10.78789,"long":106.67586,"price":6300000000,"title":"Ng\u1ed9p L\u00ea V\u0103n S\u1ef9 54m2 H\u1ebbm xe h\u01a1i 3 t\u1ea5m BTCT \u1edf li\u1ec1n","url":"https://www.nhatot.com/mua-ban-nha-dat-Qu\u1eadn-3-tp-ho-chi-minh/102144982.htm"},{"dist":"Qu\u1eadn 3","img":"https://cdn.chotot.com/Z95Ea5bN3oHs1MLooa7Mi5YwVQILtHBxC39Ye3KxgnI/preset:property_project_small/plain/2435_sample_house_6.jpg","lat":10.78935,"long":106.68566,"price":1350000000,"title":"S\u00f3t l\u1ea1i c\u0103n 2PN CC Terra Royal, Q3 - 58m2,view \u0111\u1eb9p","url":"https://www.nhatot.com/mua-ban-nha-dat-Qu\u1eadn-3-tp-ho-chi-minh/101112306.htm"},{"dist":"Qu\u1eadn 3","img":"https://cdn.chotot.com/ByOffLV-lE9R34s-7l9IxJy81AsJAcaYJF4ARLIbIQ8/preset:listing/plain/d48d6e5840a97969fb64d81ade74986a-2803386298701602862.jpg","lat":10.76991,"long":106.68372,"price":2240000000,"title":"Nh\u00e0 Qu\u1eadn 3:V\u00f5 V\u0103n T\u1ea7n P5 Q3 ( Dt: 40 m2 ) 1T1L SHR","url":"https://www.nhatot.com/mua-ban-nha-dat-Qu\u1eadn-3-tp-ho-chi-minh/102000349.htm"},{"dist":"Qu\u1eadn 3","img":"https://cdn.chotot.com/hK6KIhEbX93UtTkOII4Dm5D2ODYvx9Z15gWHd7Ubvz4/preset:listing/plain/8d5f60a0aebb7d4d30a6327569ad5f31-2804085978757332556.jpg","lat":10.78282,"long":106.68702,"price":1640000000,"title":"THUA L\u1ed6 B\u00c1N NH\u00c0 V\u00d5 V\u0102N T\u1ea6N, Q3 32M2/1,64T\u1ef6 SHR HXH","url":"https://www.nhatot.com/mua-ban-nha-dat-Qu\u1eadn-3-tp-ho-chi-minh/102143342.htm"},{"dist":"Qu\u1eadn 3","img":"https://cdn.chotot.com/oyCn1lmcFCL-6iERXv2teiDpx9FP8i9q3Cx3hTh8q74/preset:listing/plain/9176c4b369ea51616970468494626748-2800257758739292044.jpg","lat":10.78397,"long":106.67153,"price":16300000000,"title":"B\u00c1N NH\u00c0 H\u1ebaM 8M CMT8-82,5M2-4 T\u1ea6NG-16,3 T\u1ef6","url":"https://www.nhatot.com/mua-ban-nha-dat-Qu\u1eadn-3-tp-ho-chi-minh/101320803.htm"},{"dist":"Qu\u1eadn 3","img":"https://cdn.chotot.com/rFL3v2sq6BghUfEl7rZww4FxLO0ps39cXeY8rvX3vx8/preset:listing/plain/23d82a03ab234f2ebc5f81abc1b34e1e-2804069411415029782.jpg","lat":10.78799,"long":106.67364,"price":5200000000,"title":"B\u00e1n nh\u00e0 trung t\u00e2m qu\u1eadn 3,c\u1ea7n b\u00e1n g\u1ea5p tr\u01b0\u1edbc t\u1ebft","url":"https://www.nhatot.com/mua-ban-nha-dat-Qu\u1eadn-3-tp-ho-chi-minh/102139772.htm"},{"dist":"Qu\u1eadn 3","img":"https://cdn.chotot.com/7saPvfX2kXY6PGUEbN2fmdsYhYm5MqyW_8fmyO-Y8G8/preset:listing/plain/012325979b9bf715113f670894c6b2bd-2804057378748509891.jpg","lat":10.76925,"long":106.67838,"price":3200000000,"title":"C\u1ea7n b\u00e1n ch\u00ednh ch\u1ee7 Cc Nguy\u1ec5n Thi\u1ec7n Thu\u1eadt","url":"https://www.nhatot.com/mua-ban-nha-dat-Qu\u1eadn-3-tp-ho-chi-minh/102136541.htm"},{"dist":"Qu\u1eadn 3","img":"https://cdn.chotot.com/p4Uxjr4FVhWFWrzmDCSBaJQ9M_QoA4uShheA8K1AUWQ/preset:listing/plain/4c2e2a3b2ab71b07e9a98d8e24555eac-2804052704540677333.jpg","lat":10.76912,"long":106.67989,"price":6700000000,"title":"B\u00c0N C\u1edc- NGUY\u1ec4N THI\u1ec6N THU\u1eacT-Q3- 38M2, 3 T\u1ea6NG-HXH","url":"https://www.nhatot.com/mua-ban-nha-dat-Qu\u1eadn-3-tp-ho-chi-minh/102135287.htm"},{"dist":"Qu\u1eadn 3","img":"https://cdn.chotot.com/9FEaL_2KfA9jb_Yjh7cLPV5EokX6rsROWiFr0PvmyG4/preset:listing/plain/0808dc9387cfe23a72211f9e22f9aa55-2804044602843363253.jpg","lat":10.7894,"long":106.67673,"price":14500000000,"title":"Nh\u00e0 h\u1ebbm 6m 4,4x15m, 61m2 L\u00ea V\u0103n S\u1ef9-Tr\u1ea7n Qu\u1ed1c Th\u1ea3o.","url":"https://www.nhatot.com/mua-ban-nha-dat-Qu\u1eadn-3-tp-ho-chi-minh/102134877.htm"},{"dist":"Qu\u1eadn 3","img":"https://cdn.chotot.com/ZT_EtfguNsZnifebVqGFjp25w4oAxnlTEqTbwmlM_Is/preset:listing/plain/da872f5ae0a8eaba21ac886ee669eaed-2804051334437736105.jpg","lat":10.77565,"long":106.68951,"price":2600000000,"title":"Nh\u00e0 H\u1ebbm 202 3.2x6.5m 1 L\u1ea7u V\u00f5 V\u0103n T\u1ea7n Q3","url":"https://www.nhatot.com/mua-ban-nha-dat-Qu\u1eadn-3-tp-ho-chi-minh/102134658.htm"},{"dist":"Qu\u1eadn 3","img":"https://cdn.chotot.com/Alnp6G2uzq0ngTsh9vWEFH4gKKjqqDG8eCV2JolGQSo/preset:listing/plain/c2aff118049dbfb1f861868d6c8f9c69-2804039407089935870.jpg","lat":10.78799,"long":106.67445,"price":7200000000,"title":"TT QU\u1eacN 3 HXH 7 CH\u1ed6 V\u00c0O NH\u00c0 NH\u00c0 \u0110\u1eb8P 4T N4M CH\u1ec8 7T\u1ef6","url":"https://www.nhatot.com/mua-ban-nha-dat-Qu\u1eadn-3-tp-ho-chi-minh/102131506.htm"},{"dist":"Qu\u1eadn 3","img":"https://cdn.chotot.com/A4yTd9ORIfZY-KvKcXam6wZh7W5xlknUTbLc1MI9BGA/preset:listing/plain/451e03fd428de57a407912471fadbdc4-2799148863255086946.jpg","lat":10.7894,"long":106.67673,"price":1050000000,"title":"Nh\u00e0 \u0111\u1eb9p \u0111\u01b0\u1eddng L\u00ea V\u0103n S\u1ef9, P14, Q3 - 2PN Gi\u00e1 1t\u1ef7050","url":"https://www.nhatot.com/mua-ban-nha-dat-Qu\u1eadn-3-tp-ho-chi-minh/101112650.htm"},{"dist":"Qu\u1eadn 3","img":"https://cdn.chotot.com/VucY2AX0tCfRz6zMot3rNkDKcWIjQLMPAwsKflxrfko/preset:listing/plain/cc2ea739bedeed14d199f11b8449cb40-2804032682695249371.jpg","lat":10.78775,"long":106.6818,"price":17600000000,"title":"Nh\u00e0 h\u1ebbm xe h\u01a1i 220 l\u00ea v\u0103n s\u1ef9 th\u00f4ng tr\u01b0\u1eddng sa","url":"https://www.nhatot.com/mua-ban-nha-dat-Qu\u1eadn-3-tp-ho-chi-minh/102128951.htm"},{"dist":"Qu\u1eadn 3","img":"https://cdn.chotot.com/oXdKnWCceuiEIMV2vwLcVw8fmzv1M485PSluaSM8itA/preset:listing/plain/b71aae101b14d71156f88abadc3ac5df-2804026714462938622.jpg","lat":10.79104,"long":106.68554,"price":4500000000,"title":"\u274c B\u00e1n nh\u00e0 L\u00fd Ch\u00ednh Th\u1eafng 2 m\u1eb7t h\u1ebbm s\u00e1t HXH 3.5x10m","url":"https://www.nhatot.com/mua-ban-nha-dat-Qu\u1eadn-3-tp-ho-chi-minh/102127968.htm"},{"dist":"Qu\u1eadn 3","img":"https://cdn.chotot.com/001E7AXfCZ2ORWWj1yvNjQFX_g6SqtTsiX6obYaPyT4/preset:listing/plain/3b7f5a9a2dec6218b02a059bb4dfd801-2803887487915486221.jpg","lat":10.78668,"long":106.66556,"price":6200000000,"title":"Nh\u00e0 h\u1ebbm CMT8 qu\u1eadn 3, g\u1ea7n c\u00f4ng vi\u00ean L\u00ea Th\u1ecb Ri\u00eang","url":"https://www.nhatot.com/mua-ban-nha-dat-Qu\u1eadn-3-tp-ho-chi-minh/102102289.htm"},{"dist":"Qu\u1eadn 3","img":"https://cdn.chotot.com/FNscDfhyerCrdNVHE7xm_jVbHcLdmR42XZdYMUzLSQU/preset:listing/plain/2ffea722d796c3dba0164b78e82d3965-2803517100565024173.jpg","lat":10.78253,"long":106.68212,"price":4900000000,"title":"Nh\u00e0 3 t\u1eb1ng, 4x10 vu\u00f4ng v\u1ee9c, c\u00e1ch m\u1eb7t ti\u1ec1n 30m","url":"https://www.nhatot.com/mua-ban-nha-dat-Qu\u1eadn-3-tp-ho-chi-minh/102028822.htm"},{"dist":"Qu\u1eadn 3","img":"https://cdn.chotot.com/U15toxwOyaDUOOn7CqI9cMzvARt_8QgbK4tfPVRQVOc/preset:listing/plain/217e1a7ed2e8f153b59c0026cf5615e3-2804021259259115542.jpg","lat":10.77271,"long":106.68063,"price":6800000000,"title":"2MTHXH Ph\u1ed1 \u0111i b\u1ed9 Nguy\u1ec5n Th\u01b0\u1ee3ng Hi\u1ec1n Q3 gi\u00e1 6t\u1ef78","url":"https://www.nhatot.com/mua-ban-nha-dat-Qu\u1eadn-3-tp-ho-chi-minh/102125835.htm"},{"dist":"Qu\u1eadn 3","img":"https://cdn.chotot.com/WSWH4ZjCG5KY7pLPR2H7yZeL7r7Z0FuAkDVVz6O9PWY/preset:listing/plain/f521a2cbc3b73603cc65ae762d01de55-2803966350326403615.jpg","lat":10.78731,"long":106.6736,"price":1305000000,"title":"MUA NH\u00c0 M\u1edaI b\u00e1n l\u1ed7 Screc Tower Q3 2PN 77m2 1,3 T\u1ef7","url":"https://www.nhatot.com/mua-ban-nha-dat-Qu\u1eadn-3-tp-ho-chi-minh/102125723.htm"},{"dist":"Qu\u1eadn 3","img":"https://cdn.chotot.com/sHoV1_W557qjRtPyLPwZ2v5jlkCAg2X7vdjaAjvTCxs/preset:listing/plain/e6314a2276a50a18a4dc61e7d73d2e8c-2803976074290301804.jpg","lat":10.782773,"long":106.67998,"price":3105000000,"title":"V\u1eca TR\u00cd SI\u00caU \u0110\u1eb8P nh\u00e0 Nguy\u1ec5n Ph\u00fac Nguy\u00ean Q3 54m2 SHR","url":"https://www.nhatot.com/mua-ban-nha-dat-Qu\u1eadn-3-tp-ho-chi-minh/102125693.htm"},{"dist":"Qu\u1eadn 3","img":"https://cdn.chotot.com/kGyLcGfPXUFKrTx-ZqbjJzSe_QFVtU1RmU8RN645WWA/preset:listing/plain/525415caa565316530ca4764c2a093af-2803957678934110546.jpg","lat":10.773081,"long":106.68292,"price":3020000000,"title":"V\u1eca TR\u00cd V\u00c0NG V\u01b0\u1eddn Chu\u1ed1i Q3 3t\u1ef7020 52m2 3PN 3wc SHR","url":"https://www.nhatot.com/mua-ban-nha-dat-Qu\u1eadn-3-tp-ho-chi-minh/102125656.htm"},{"dist":"Qu\u1eadn 3","img":"https://cdn.chotot.com/pGQQy2ajSsZbjpG6f8Yk-GSte2-B5D4l5ikk0GneaOE/preset:listing/plain/f8f87741386c7883e91fc2e820a1f5cb-2803299704066459236.jpg","lat":10.78958,"long":106.67998,"price":15000000000,"title":"M\u1eb6T TI\u1ec0N P.14, Q.3. DT: 5x11m (55m2). T+3L. 15 T\u1ef7","url":"https://www.nhatot.com/mua-ban-nha-dat-Qu\u1eadn-3-tp-ho-chi-minh/101970570.htm"},{"dist":"Qu\u1eadn 3","img":"https://cdn.chotot.com/fl4wA3EFcraf0q6e8mz3m5Ivv8_CuTZxxIGi9K82PaU/preset:listing/plain/4bd62064c8181ed9f8ad42bd26d3e1fc-2803019483719479563.jpg","lat":10.76982,"long":106.68037,"price":1420000000,"title":"N\u1ee2 B\u00c1N G\u1ea4P NH\u00c0 H\u1ebaM B\u00c0N C\u1edc Q.3 58M2 GI\u00c1 1.42 T\u1ef6 SHR","url":"https://www.nhatot.com/mua-ban-nha-dat-Qu\u1eadn-3-tp-ho-chi-minh/101916888.htm"},{"dist":"Qu\u1eadn 3","img":"https://cdn.chotot.com/098256rT6r0AhbMJnbdYtrm4aXbyTwBuNLKV3XjyJD8/preset:listing/plain/e8034b58974ebc38759b7646d5045e3f-2799414831366034707.jpg","lat":10.7709,"long":106.68381,"price":1270000000,"title":"B\u1ec6NH B\u00c1N G\u1ea4P NH\u00c0 NGUY\u1ec4N \u0110\u00ccNH CHI\u1ec2U 63m2 GI\u00c1 1,27T\u1ef6","url":"https://www.nhatot.com/mua-ban-nha-dat-Qu\u1eadn-3-tp-ho-chi-minh/101137188.htm"},{"dist":"Qu\u1eadn 3","img":"https://cdn.chotot.com/0LBUmEAO9bC_TYbIR9oVraYJy_mLHIygaCIxcALFZIs/preset:listing/plain/8d776ef1e61a2e061100081fff95a773-2803962827278887003.jpg","lat":10.78571,"long":106.68833,"price":41000000000,"title":"Nh\u00e0 b\u00e1n NAM K\u1ef2 KH\u1edeI NGH\u0128A(7,5X18m)6 t\u1ea7ng,H\u0110T170tr","url":"https://www.nhatot.com/mua-ban-nha-dat-Qu\u1eadn-3-tp-ho-chi-minh/102122649.htm"},{"dist":"Qu\u1eadn 3","img":"https://cdn.chotot.com/R1fkaxu5PtMzSmRJLQHJmfYi3jvnNsQ77loHl5AongU/preset:listing/plain/1cec764604ff14ce7a3ba2fc681cc519-2803808337184386683.jpg","lat":10.782773,"long":106.67998,"price":3500000000,"title":"B\u00c1N R\u1eba CHUNG C\u01af 2PN 68m2 TR\u01af\u01a0NG \u0110\u1ecaNH QU\u1eacN 3","url":"https://www.nhatot.com/mua-ban-nha-dat-Qu\u1eadn-3-tp-ho-chi-minh/102120336.htm"},{"dist":"Qu\u1eadn 3","img":"https://cdn.chotot.com/ajeuyUQBUzw5209GynKgBg_6diOxTjdX9rFAfV4xDaM/preset:listing/plain/909a9f80e6dbe024009a792899be81db-2803946588257036379.jpg","lat":10.78397,"long":106.67153,"price":10000000000,"title":"HXH CMT8 68m2\u274cL\u00d4 G\u00d3C 5 t\u1ea7ng 30m ra m\u1eb7t ti\u1ec1n","url":"https://www.nhatot.com/mua-ban-nha-dat-Qu\u1eadn-3-tp-ho-chi-minh/102120205.htm"},{"dist":"Qu\u1eadn 3","img":"https://cdn.chotot.com/7GH1X-K7USGzw70DClwd1OcTlfatvNcoLztEHQMwCR8/preset:listing/plain/3ac673c333db8db0ad890872602a61b4-2803533588706120982.jpg","lat":10.78468,"long":106.675,"price":19900000000,"title":"H\u1ebbm 6m TR\u1ea6N V\u0102N \u0110ANG,5 l\u1ea7u,14P, \u0111ang cho thu\u00ea 89tr","url":"https://www.nhatot.com/mua-ban-nha-dat-Qu\u1eadn-3-tp-ho-chi-minh/102031122.htm"},{"dist":"Qu\u1eadn 3","img":"https://cdn.chotot.com/EBO4W19cngqLwlv5N-9DM3ED5eYIkphYd_1QmaeXA2w/preset:listing/plain/badd8ac95dbb709d53e59d8eacc3195b-2803941887548472633.jpg","lat":10.773081,"long":106.68292,"price":7400000000,"title":"B\u00e1n Nh\u00e0 Nguy\u1ec5n \u0110\u00ecnh Chi\u1ec3u P4 Qu\u1eadn 3","url":"https://www.nhatot.com/mua-ban-nha-dat-Qu\u1eadn-3-tp-ho-chi-minh/102119256.htm"},{"dist":"Qu\u1eadn 3","img":"https://cdn.chotot.com/X_dy8oIc3isqSdAk_Oi6kMKWqM7AIX6LN86fEbdKtBw/preset:listing/plain/e8d296c064230bb74c59c41b1b8bac39-2803913788383455691.jpg","lat":10.78253,"long":106.68212,"price":2560000000,"title":"\u0110\u00c1O H\u1ea0N NG\u00c2N H\u00c0NG - H\u1ebbm 10/ K\u1ef3 \u0110\u1ed3ng - Q.3 S\u1ed5 ri\u00eang","url":"https://www.nhatot.com/mua-ban-nha-dat-Qu\u1eadn-3-tp-ho-chi-minh/102119108.htm"},{"dist":"Qu\u1eadn 3","img":"https://cdn.chotot.com/Jb2LgQxcpYPACQeeOhtF1dcV79rpHC2sxHdhapcfDBg/preset:listing/plain/40e29a3ca8935fc57cfdd76f873b1d6b-2803932931913705931.jpg","lat":10.78253,"long":106.68212,"price":19500000000,"title":"HXH NH\u00c0 \u0110\u1eb8P C\u1ea6N B\u00c1N T\u1ea0I K\u1ef2 \u0110\u1ed2NG Q.3 D\u00d2NG TI\u1ec0N T\u1ed0T","url":"https://www.nhatot.com/mua-ban-nha-dat-Qu\u1eadn-3-tp-ho-chi-minh/102117412.htm"},{"dist":"Qu\u1eadn 3","img":"https://cdn.chotot.com/r1ksKmK5lKGAI3oqYSUVmUjqILPKfftmWYQ_cLcvpRU/preset:listing/plain/6c2fd842f6bedb28e3a728ce56d0c020-2803933445347977727.jpg","lat":10.78131,"long":106.67672,"price":12000000000,"title":"B\u00c1N NH\u00c0 H\u1ebaM XE T\u1ea2I TR\u00c1NH NHAU CMT8 Q3","url":"https://www.nhatot.com/mua-ban-nha-dat-Qu\u1eadn-3-tp-ho-chi-minh/102117407.htm"},{"dist":"Qu\u1eadn 3","img":"https://cdn.chotot.com/YTrV1EFY8XzZCT3nsp1j3XNpnAWYM-iWxGoeJ3zPdtE/preset:listing/plain/d71641cb999c018176dafa78314116b0-2803926354756026130.jpg","lat":10.78935,"long":106.68566,"price":2230000000,"title":"C\u0103n h\u1ed9 gi\u00e1 r\u1ebb b\u00e1n \\ 72m2 gi\u00e1 2t\u1ef72","url":"https://www.nhatot.com/mua-ban-nha-dat-Qu\u1eadn-3-tp-ho-chi-minh/102115646.htm"},{"dist":"Qu\u1eadn 3","img":"https://cdn.chotot.com/TgTJR2izwIuVOAei3MYpRnZVlq_s_-ynvgs7JJOiQj4/preset:listing/plain/8470422bf5e49b4a7e653d01de9040c2-2803921623316064715.jpg","lat":10.77113,"long":106.68299,"price":795000000,"title":"C\u1ea7n Ti\u1ec1n B\u00e1n Nhanh Nh\u00e0 Q.3, \u0110.Nguy\u1ec5n \u0110\u00ecnh Chi\u1ec3u","url":"https://www.nhatot.com/mua-ban-nha-dat-Qu\u1eadn-3-tp-ho-chi-minh/102114263.htm"},{"dist":"Qu\u1eadn 3","img":"https://cdn.chotot.com/suGqSmYlSuOE1ORyK2ifBLNssDs_ubNj5SfFPL3EnVs/preset:listing/plain/a255536a8d6f2e70d92f0ee7e738db41-2803919688236835762.jpg","lat":10.77114,"long":106.68108,"price":16000000000,"title":"Ch\u00ednh ch\u1ee7 c\u1ea7n b\u00e1n nh\u00e0 m\u1eb7t ti\u1ec1n C\u01b0 X\u00e1 \u0110\u00f4 Th\u00e0nh Q3","url":"https://www.nhatot.com/mua-ban-nha-dat-Qu\u1eadn-3-tp-ho-chi-minh/102113452.htm"},{"dist":"Qu\u1eadn 3","img":"https://cdn.chotot.com/tc7qtjJd_Q50V317FDMcEAddKkl6ATfRIxLho1k7Nv8/preset:listing/plain/b4c6a5a3d7f542b27446e6a887368300-2803916164731872178.jpg","lat":10.7748,"long":106.6846,"price":13000000000,"title":"c\u1ea7n b\u00e1n nh\u00e0","url":"https://www.nhatot.com/mua-ban-nha-dat-Qu\u1eadn-3-tp-ho-chi-minh/102112154.htm"},{"dist":"Qu\u1eadn 3","img":"https://cdn.chotot.com/jsr1YjaV536Cxp3fLAF3lYiMmRU1giOn30CcX8TIYvE/preset:listing/plain/30fd3d4e76269c83b0d0bba011fcea37-2803913871221638169.jpg","lat":10.76945,"long":106.67933,"price":16200000000,"title":"HXT 10m N.\u0110.Chi\u1ec3u. Q3. 4*17. Tr\u1ec7t 3 l\u1ea7u. 16.2 t\u1ef7","url":"https://www.nhatot.com/mua-ban-nha-dat-Qu\u1eadn-3-tp-ho-chi-minh/102111444.htm"},{"dist":"Qu\u1eadn 3","img":"https://cdn.chotot.com/c3Osh8Fo0WghGT3ERyo-7Oa6swdZs610NAe5n3-fMEI/preset:listing/plain/a0066a3286a465168901129dcfd961b9-2803912911049755403.jpg","lat":10.77011,"long":106.68072,"price":16000000000,"title":"H\u1ebbm 12m Nguy\u1ec5n Thi\u1ec7n Thu\u1eadt. Q3, 4.2*18. 4T. 16 T\u1ef7","url":"https://www.nhatot.com/mua-ban-nha-dat-Qu\u1eadn-3-tp-ho-chi-minh/102111102.htm"},{"dist":"Qu\u1eadn 3","img":"https://cdn.chotot.com/lyqBd6RXFnJUFfnpjrQcDRHiP28zZ0dqKHfeG2qU7xc/preset:listing/plain/38ef3ca00ca31b0ece26765c181efd08-2802753090986787008.jpg","lat":10.78842,"long":106.68165,"price":1650000000,"title":"\u0110\u1ecaNH C\u01af N\u01af\u1edaC NGO\u00c0I B\u00c1N NH\u00c0 \u0110\u01af\u1edcNG TR\u01af\u1edcNG SA, P14, Q","url":"https://www.nhatot.com/mua-ban-nha-dat-Qu\u1eadn-3-tp-ho-chi-minh/101869308.htm"},{"dist":"Qu\u1eadn 3","img":"https://cdn.chotot.com/0eQkvYgW2pb2DiZoiaOcE8LsrgS42gFWeuf3smT8rkc/preset:listing/plain/25b57d1e872cf08e81b9618986efeec5-2801268386900446907.jpg","lat":10.7766,"long":106.68852,"price":1570000000,"title":"PH\u00c1 S\u1ea2N B\u00c1N G\u1ea4P CH SAIGON PAVILLON Q3 75m2 1t\u1ef7570","url":"https://www.nhatot.com/mua-ban-nha-dat-Qu\u1eadn-3-tp-ho-chi-minh/101547024.htm"},{"dist":"Qu\u1eadn 3","img":"https://cdn.chotot.com/T6HC9OrgyBxnH0PFaHM5UDg2VBp1d8fxp_jeMF7lX78/preset:listing/plain/dde3b1162e75f6051e940b77571ffef0-2803904958657780523.jpg","lat":10.78661,"long":106.67794,"price":1680000000,"title":"C\u1ea7n ti\u1ec1n b\u00e1n g\u1ea5p L\u00ea V\u0103n S\u1ef9,Q3,h\u1ebbm oto,48m2,s\u1ed5 h\u1ed3ng","url":"https://www.nhatot.com/mua-ban-nha-dat-Qu\u1eadn-3-tp-ho-chi-minh/102108564.htm"},{"dist":"Qu\u1eadn 3","img":"https://cdn.chotot.com/nIE8XBbcj1pVkpoFqCWuXjUnEqKBLS5_ES8aLH_tOsA/preset:listing/plain/6a259d7a9e8359e6f2ec3692e81ac097-2803773674684654625.jpg","lat":10.77819,"long":106.68992,"price":3890000000,"title":"SI\u00caU PH\u1ea8M C\u0102N H\u1ed8 L\u00e9man Luxury Qu\u1eadn 3 2PN 3,89 T\u1ef7","url":"https://www.nhatot.com/mua-ban-nha-dat-Qu\u1eadn-3-tp-ho-chi-minh/102108211.htm"},{"dist":"Qu\u1eadn 3","img":"https://cdn.chotot.com/oGF2cFRFfQ1BwjH893-210yU3Y68ceuXha-w12ko7Yw/preset:listing/plain/e6b556a8dbd533a5526c7078d4c3ecaf-2803898215133874739.jpg","lat":10.78935,"long":106.68566,"price":1960000000,"title":"GI\u00c1 TRONG M\u01a0! CH Terra Royal Q3 t\u1ea7ng trung 1t\u1ef7960","url":"https://www.nhatot.com/mua-ban-nha-dat-Qu\u1eadn-3-tp-ho-chi-minh/102108104.htm"},{"dist":"Qu\u1eadn 3","img":"https://cdn.chotot.com/DjKgxhnb1-mjz_ltm-k_YhTSwPsgZA2O_H8JDG6Lp_o/preset:listing/plain/92965fe9372142a3c3aea487e13d8f60-2803029056596403561.jpg","lat":10.77068,"long":106.68157,"price":2750000000,"title":"CHUNG C\u01af CAO TH\u1eaeNG Q3 GI\u00c1 M\u1ec0M","url":"https://www.nhatot.com/mua-ban-nha-dat-Qu\u1eadn-3-tp-ho-chi-minh/101920100.htm"},{"dist":"Qu\u1eadn 3","img":"https://cdn.chotot.com/SMXHS-CW4fXC_qdaXVpP3DYXdSPPWnbwAHgDf92mKMo/preset:listing/plain/123bc0fef658318a45191c0d0b2b95fb-2803895731460161298.jpg","lat":10.77011,"long":106.68072,"price":2670000000,"title":"Nh\u00e0 Nguy\u1ec5n Thi\u1ec7n Thu\u1eadn - Q.3 - H\u1ebbm 3.5m Gi\u00e1p Q.1","url":"https://www.nhatot.com/mua-ban-nha-dat-Qu\u1eadn-3-tp-ho-chi-minh/102105561.htm"},{"dist":"Qu\u1eadn 3","img":"https://cdn.chotot.com/E5ZChyr4VKdpuqbswvstJzun-_FgGX5_pUwkRltnIxU/preset:listing/plain/8176de65273dba333c3430915b8818a2-2803891314367280035.jpg","lat":10.77356,"long":106.68305,"price":2570000000,"title":"Ph\u00e1 S\u1ea3n B\u00e1n C\u0103n: V\u01b0\u1eddn Chu\u1ed1i P4 Q3 ( Dt: 45,15m2 )","url":"https://www.nhatot.com/mua-ban-nha-dat-Qu\u1eadn-3-tp-ho-chi-minh/102105220.htm"},{"dist":"Qu\u1eadn 3","img":"https://cdn.chotot.com/AmJbbFfHNs5ZxdtTpBXazwuo6M6IazsY-_Owh6RYjlE/preset:listing/plain/b6fba7e904b7f3f802976e2934ce1f08-2803894109318613555.jpg","lat":10.78754,"long":106.67123,"price":14000000000,"title":"MT CH\u1ee6 G\u1ea4P B\u00c1N TR\u01af\u1edaC T\u1ebeT GI\u1ea2M S\u1ed0C 2T\u1ef7 c\u00f2n 14 T\u1ef7","url":"https://www.nhatot.com/mua-ban-nha-dat-Qu\u1eadn-3-tp-ho-chi-minh/102104781.htm"},{"dist":"Qu\u1eadn 3","img":"https://cdn.chotot.com/hLb-UPzUxxwulos06-yIPXLh6Aio7P-_134ZtUhgs1U/preset:listing/plain/c94ff8c234198f98731b5b3c01d6d709-2803475294049992977.jpg","lat":10.78397,"long":106.67153,"price":6200000000,"title":"C\u1ea7n b\u00e1n nh\u00e0 ph\u1ed1 Qu\u1eadn 3","url":"https://www.nhatot.com/mua-ban-nha-dat-Qu\u1eadn-3-tp-ho-chi-minh/102016545.htm"},{"dist":"Qu\u1eadn 3","img":"https://cdn.chotot.com/9DRbJJRhvuidNA3EVwWwx8F8nEmZxRX8x4IVgVN6cPA/preset:listing/plain/e2bd7ff66d51f9bb81e6cb31cbb32381-2803889723513608144.jpg","lat":10.78282,"long":106.6867,"price":1650000000,"title":"CH\u00cdNH CH\u1ee6 NH\u00c0 1/ \u0110\u01af\u1edcNG TR\u1ea6N QU\u1ed0C TH\u1ea2O Q3_SH_1.65TY","url":"https://www.nhatot.com/mua-ban-nha-dat-Qu\u1eadn-3-tp-ho-chi-minh/102103905.htm"},{"dist":"Qu\u1eadn 3","img":"https://cdn.chotot.com/wgZdS-02tN7DHo4BAxwwAX2N6s1UT2uqu8ztUVHHLAA/preset:listing/plain/6e86d3c2cb204f80e1fed7892a727e35-2803889242832703732.jpg","lat":10.78687,"long":106.67671,"price":17500000000,"title":"Nh\u00e0 m\u1edbi \u1edf ngay L\u00ea V\u0103n S\u1ef9, Quan 3, DT 5x16m, 3L","url":"https://www.nhatot.com/mua-ban-nha-dat-Qu\u1eadn-3-tp-ho-chi-minh/102102745.htm"},{"dist":"Qu\u1eadn 3","img":"https://cdn.chotot.com/fKtWx6Sk5aKHduEf35jvsu_G9_snnVZdG_nR5JhECdM/preset:listing/plain/d47e6b72fc2285297e487db9157af3ec-2785213395965015670.jpg","lat":10.78661,"long":106.67794,"price":4900000000,"title":"C\u1ea6N B\u00c1N NH\u00c0 G\u1ea4P RA N\u01af\u1edaC NGO\u00c0I \u1ede L\u00ca V\u0102N S\u1ef8 Q3","url":"https://www.nhatot.com/mua-ban-nha-dat-Qu\u1eadn-3-tp-ho-chi-minh/97823307.htm"},{"dist":"Qu\u1eadn 3","img":"https://cdn.chotot.com/YTidxSqEETnXJB7PILXy4iu7WGemWGoHYpmoAO0ESDg/preset:listing/plain/f746799c5d2403ae9e43dad46092bf6e-2803886952649770009.jpg","lat":10.79104,"long":106.68554,"price":4200000000,"title":"H\u00e0ng gi\u1ea3m gi\u00e1  2T\u1ea7ng L\u00fd Ch\u00ednh Th\u1eafng Q3, 30m2","url":"https://www.nhatot.com/mua-ban-nha-dat-Qu\u1eadn-3-tp-ho-chi-minh/102101678.htm"},{"dist":"Qu\u1eadn 3","img":"https://cdn.chotot.com/95Na3C8c0UbmJD3jJbyTPz8h2IgCL19T0h574Xajsos/preset:listing/plain/eeddd3511263da0ec30da0d013fa921d-2803775304397240231.jpg","lat":10.78661,"long":106.67794,"price":2350000000,"title":"Ch\u1ee7 ng\u1ed9p bank b\u00e1n c\u0103n h\u1ebbm L\u00ca V\u0102N S\u1ef8 Q3 52M2 2TY350","url":"https://www.nhatot.com/mua-ban-nha-dat-Qu\u1eadn-3-tp-ho-chi-minh/102101517.htm"},{"dist":"Qu\u1eadn 3","img":"https://cdn.chotot.com/M5JZEP9SMz0u5MhzS7wj5mDi43yC7ARa6hAnVB3akpc/preset:listing/plain/3ff3e77e25c470c74b713447a15c9c97-2803886159295969909.jpg","lat":10.78282,"long":106.68702,"price":32000000000,"title":"B\u00e1n nh\u00e0 M\u1eb7t ti\u1ec1n \u0110\u01b0\u1eddng V\u00f5 Th\u1ecb S\u00e1u Ph\u01b0\u1eddng 6 Qu\u1eadn 3","url":"https://www.nhatot.com/mua-ban-nha-dat-Qu\u1eadn-3-tp-ho-chi-minh/102101367.htm"},{"dist":"Qu\u1eadn 3","img":"https://cdn.chotot.com/KPSx5qjAhrpur3mWITChd3GNtFcqF1HiIqXWXYQT1Bs/preset:listing/plain/69c80f45769feb755da8f7f37ba56e9a-2803884940189657547.jpg","lat":10.78468,"long":106.675,"price":1680000000,"title":"B\u00e1n nh\u00e0 Tr\u1ea7n V\u0103n \u0110ang P.11 Qu\u1eadn 3 28m2, 1 t\u1ef7 68","url":"https://www.nhatot.com/mua-ban-nha-dat-Qu\u1eadn-3-tp-ho-chi-minh/102100999.htm"},{"dist":"Qu\u1eadn 3","img":"https://cdn.chotot.com/KUpKOfSBLuMz3F4iXqO690PDTgIpKh5qa9zN7p-CHF8/preset:listing/plain/9fb8f147285b7eeb539dab87c0727d05-2803883776620746404.jpg","lat":10.78775,"long":106.6818,"price":1800000000,"title":"NH\u00c0 NG\u1ed8P \u0110\u01af\u1edcNG L\u00ca V\u0102N S\u1ef8 QU\u1eacN 3 C\u1ea6N THANH L\u00dd G\u1ea4P","url":"https://www.nhatot.com/mua-ban-nha-dat-Qu\u1eadn-3-tp-ho-chi-minh/102100254.htm"},{"dist":"Qu\u1eadn 3","img":"https://cdn.chotot.com/Z4MEbFroEqT68mnnNJBxDF5wPHKqL0iHQaSzwUx3gsM/preset:listing/plain/d631da142000507dfae8cb4ba139edbf-2803882707510834083.jpg","lat":10.76982,"long":106.68037,"price":9200000000,"title":"Nha\u0300 m\u01a1\u0301i \u0111e\u0323p 5 t\u00e2\u0300ng Q3, 40m2, 6PN chi\u0309 9.2 ty\u0309.","url":"https://www.nhatot.com/mua-ban-nha-dat-Qu\u1eadn-3-tp-ho-chi-minh/102099875.htm"},{"dist":"Qu\u1eadn 3","img":"https://cdn.chotot.com/2k4s_IyxUR22cOSp9tXxRKQfBqQx2WYbYCDKby4L5UU/preset:listing/plain/fddd0e06e579c70693f519477ab21c60-2803882304189696563.jpg","lat":10.7861,"long":106.67838,"price":14000000000,"title":"Nh\u00e0 MT Tr\u1ea7n Quang Di\u1ec7u, Qu\u1eadn 3 DT 5.5x12m gi\u00e1 14t\u1ef7","url":"https://www.nhatot.com/mua-ban-nha-dat-Qu\u1eadn-3-tp-ho-chi-minh/102099786.htm"},{"dist":"Qu\u1eadn 3","img":"https://cdn.chotot.com/8e-Vv1-na94yw02OHDDJ1FMQqLgf9Tg5E07NQNKKIg8/preset:listing/plain/f445cd5b29b5a98fc02a84a43da88408-2803878604456069683.jpg","lat":10.78111,"long":106.67658,"price":3000000000,"title":"Nh\u00e0 3T\u1ef7 TT SaiGon 3T\u1ea7ng CMT8 Q3, 22m2 ,4.3mx5.8m","url":"https://www.nhatot.com/mua-ban-nha-dat-Qu\u1eadn-3-tp-ho-chi-minh/102098669.htm"},{"dist":"Qu\u1eadn 3","img":"https://cdn.chotot.com/zMwZu3LfajoSSzmB07VC1JxJca3EQrcCXVNM7ZpF8DA/preset:listing/plain/019321ca320744be554d9e35e18d8b3f-2801322865825490387.jpg","lat":10.78282,"long":106.68702,"price":9200000000,"title":"B\u00e1n Nh\u00e0 M\u1edaI Trung T\u00e2m ngay V\u00f5 Th\u1ecb S\u00e1u, Q3 4x10","url":"https://www.nhatot.com/mua-ban-nha-dat-Qu\u1eadn-3-tp-ho-chi-minh/101561145.htm"},{"dist":"Qu\u1eadn 3","img":"https://cdn.chotot.com/_CRAmGIYQDq6Jbkgly52andYN6l-fwrNr5_6MDIkH74/preset:listing/plain/c39c455b903c3151d980c59fd87c1c64-2801894494430755495.jpg","lat":10.78779,"long":106.69205,"price":1900000000,"title":"V\u1ec0 QU\u00ca S\u1ed0NG B\u00c1N G\u1ea4P NH\u00c0 H\u1ebaM \u0110.HAI B\u00c0 TR\u01afNG, P8, Q3","url":"https://www.nhatot.com/mua-ban-nha-dat-Qu\u1eadn-3-tp-ho-chi-minh/101697227.htm"},{"dist":"Qu\u1eadn 3","img":"https://cdn.chotot.com/xfnCVq6InIzRJlkRQZbSSG8CiQ_B9rGwNxEvrD1GjAE/preset:listing/plain/dd2443fc9ce8fa5985239f425eb13f4e-2802641791853718420.jpg","lat":10.78891,"long":106.69997,"price":47900000000,"title":"MT Nguy\u1ec5n \u0110\u00ecnh Chi\u1ec1u ngang 6.2x15m, 2 L","url":"https://www.nhatot.com/mua-ban-nha-dat-Qu\u1eadn-3-tp-ho-chi-minh/101846541.htm"},{"dist":"Qu\u1eadn 3","img":"https://cdn.chotot.com/ZeGvE8GRBemKceybJQ818BCo8OweJ5jhIyYKX8g5vhI/preset:listing/plain/3ac131f32df3547533cea7167bbee9c3-2803846141381443112.jpg","lat":10.78915,"long":106.68752,"price":1860000000,"title":"THUA L\u1ed6 TR\u00c1I PHI\u1ebeU! B\u00e1n nh\u00e0 Hu\u1ef3nh T\u1ecbnh C\u1ee7a Q3","url":"https://www.nhatot.com/mua-ban-nha-dat-Qu\u1eadn-3-tp-ho-chi-minh/102096199.htm"},{"dist":"Qu\u1eadn 3","img":"https://cdn.chotot.com/3Me-5hBIzpCFlo8r6PJzK_i8q4VU-ceWV12lMM21-cI/preset:listing/plain/fb86c0dce55bad2c8135e6e6972575b8-2803819104946994962.jpg","lat":10.78789,"long":106.67586,"price":4500000000,"title":"B\u00e1n nh\u00e0 dt 35m2 gi\u00e1 4,5t\u1ef7 \u0111\u01b0\u1eddng L\u00ea V\u0103n S\u1ef9 P12 Q3","url":"https://www.nhatot.com/mua-ban-nha-dat-Qu\u1eadn-3-tp-ho-chi-minh/102095987.htm"},{"dist":"Qu\u1eadn 3","img":"https://cdn.chotot.com/UFOae9EfgihE43mJPdsaEaCT9hZIOeOO793Kjb0hxw0/preset:listing/plain/3a6ef69ce5028cfb31b1dd804d700e04-2793461606156648803.jpg","lat":10.788544,"long":106.67408,"price":12900000000,"title":"HXT 6m. HAI B\u00c0 TR\u01afNG 6x13m. 4T\u1ea6NG-CHDV GI\u00c1P Q1","url":"https://www.nhatot.com/mua-ban-nha-dat-Qu\u1eadn-3-tp-ho-chi-minh/99733836.htm"},{"dist":"Qu\u1eadn 3","img":"https://cdn.chotot.com/ihUiau8rCBVXIMgaYW7VzaYEmesaO18ib1Lsl78_C4g/preset:listing/plain/f6974126e3f2936eaf0c3b5d84836fe9-2803815777244516740.jpg","lat":10.79074,"long":106.68443,"price":4700000000,"title":"4x10, 3 t\u1ea7ng, h\u1ebbm ba g\u00e1c L\u00fd Ch\u00ednh Th\u1eafng","url":"https://www.nhatot.com/mua-ban-nha-dat-Qu\u1eadn-3-tp-ho-chi-minh/102093611.htm"},{"dist":"Qu\u1eadn 3","img":"https://cdn.chotot.com/E-y-hwQ_RkDd1F993RiJbiKjrmdT-rr3ykQLtvfRaxQ/preset:listing/plain/996509b68632934a9c42e7d9b91b0730-2803813275957482011.jpg","lat":10.78789,"long":106.67586,"price":6500000000,"title":"Ng\u1ed9p 3 t\u1ea5m L\u00ea V\u0103n S\u1ef9 HXH khu ph\u00e2n l\u00f4 B\u00e0n C\u1edd","url":"https://www.nhatot.com/mua-ban-nha-dat-Qu\u1eadn-3-tp-ho-chi-minh/102093336.htm"},